{"localidades":[{"categoria":"Localidad simple","fuente":"INDEC","municipio":{"nombre":"Alberti","id":"060021"},"departamento":{"nombre":"Alberti","id":"06021"},"nombre":"ALBERTI","id":"06021010000","provincia":{"nombre":"Buenos Aires","id":"06"},"localidad_censal":{"nombre":"Alberti","id":"06021010"},"centroide":{"lat":-35.0330734347841,"lon":-60.2806197287099}},{"categoria":"Localidad simple","fuente":"INDEC","municipio":{"nombre":"Alberti","id":"060021"},"departamento":{"nombre":"Alberti","id":"06021"},"nombre":"CORONEL SEGUI","id":"06021020000","provincia":{"nombre":"Buenos Aires","id":"06"},"localidad_censal":{"nombre":"Coronel Seguí","id":"06021020"},"centroide":{"lat":-34.8681189984321,"lon":-60.3939708823404}},{"categoria":"Componente de localidad compuesta","fuente":"INDEC","municipio":{"nombre":"Alberti","id":"060021"},"departamento":{"nombre":"Alberti","id":"06021"},"nombre":"MECHITA","id":"06021030000","provincia":{"nombre":"Buenos Aires","id":"06"},"localidad_censal":{"nombre":"Mechita","id":"06021030"},"centroide":{"lat":-35.068013673391,"lon":-60.4025971632697}},{"categoria":"Localidad simple","fuente":"INDEC","municipio":{"nombre":"Alberti","id":"060021"},"departamento":{"nombre":"Alberti","id":"06021"},"nombre":"PLA","id":"06021040000","provincia":{"nombre":"Buenos Aires","id":"06"},"localidad_censal":{"nombre":"Pla","id":"06021040"},"centroide":{"lat":-35.1243819752343,"lon":-60.2200612615259}},{"categoria":"Localidad simple","fuente":"INDEC","municipio":{"nombre":"Alberti","id":"060021"},"departamento":{"nombre":"Alberti","id":"06021"},"nombre":"VILLA GRISOLIA","id":"06021050000","provincia":{"nombre":"Buenos Aires","id":"06"},"localidad_censal":{"nombre":"Villa Grisolía","id":"06021050"},"centroide":{"lat":-35.1096178332808,"lon":-60.070551324606}},{"categoria":"Localidad simple","fuente":"INDEC","municipio":{"nombre":"Alberti","id":"060021"},"departamento":{"nombre":"Alberti","id":"06021"},"nombre":"VILLA MARIA","id":"06021060000","provincia":{"nombre":"Buenos Aires","id":"06"},"localidad_censal":{"nombre":"Villa María","id":"06021060"},"centroide":{"lat":-34.8881255447686,"lon":-60.3469385614883}},{"categoria":"Localidad simple","fuente":"INDEC","municipio":{"nombre":"Alberti","id":"060021"},"departamento":{"nombre":"Alberti","id":"06021"},"nombre":"VILLA ORTIZ","id":"06021070000","provincia":{"nombre":"Buenos Aires","id":"06"},"localidad_censal":{"nombre":"Villa Ortiz","id":"06021070"},"centroide":{"lat":-34.8435329449862,"lon":-60.3048498633642}},{"categoria":"Entidad","fuente":"INDEC","municipio":{"nombre":"Almirante Brown","id":"060028"},"departamento":{"nombre":"Almirante Brown","id":"06028"},"nombre":"ADROGUE","id":"06028010001","provincia":{"nombre":"Buenos Aires","id":"06"},"localidad_censal":{"nombre":"Almirante Brown","id":"06028010"},"centroide":{"lat":-34.8015580737331,"lon":-58.3914677191541}},{"categoria":"Entidad","fuente":"INDEC","municipio":{"nombre":"Almirante Brown","id":"060028"},"departamento":{"nombre":"Almirante Brown","id":"06028"},"nombre":"BURZACO","id":"06028010002","provincia":{"nombre":"Buenos Aires","id":"06"},"localidad_censal":{"nombre":"Almirante Brown","id":"06028010"},"centroide":{"lat":-34.8315415891783,"lon":-58.3986874871405}},{"categoria":"Entidad","fuente":"INDEC","municipio":{"nombre":"Almirante Brown","id":"060028"},"departamento":{"nombre":"Almirante Brown","id":"06028"},"nombre":"CLAYPOLE","id":"06028010003","provincia":{"nombre":"Buenos Aires","id":"06"},"localidad_censal":{"nombre":"Almirante Brown","id":"06028010"},"centroide":{"lat":-34.8044759080477,"lon":-58.3447825531042}},{"categoria":"Entidad","fuente":"INDEC","municipio":{"nombre":"Almirante Brown","id":"060028"},"departamento":{"nombre":"Almirante Brown","id":"06028"},"nombre":"DON ORIONE","id":"06028010004","provincia":{"nombre":"Buenos Aires","id":"06"},"localidad_censal":{"nombre":"Almirante Brown","id":"06028010"},"centroide":{"lat":-34.8210751643113,"lon":-58.3447457989957}},{"categoria":"Entidad","fuente":"INDEC","municipio":{"nombre":"Almirante Brown","id":"060028"},"departamento":{"nombre":"Almirante Brown","id":"06028"},"nombre":"GLEW","id":"06028010005","provincia":{"nombre":"Buenos Aires","id":"06"},"localidad_censal":{"nombre":"Almirante Brown","id":"06028010"},"centroide":{"lat":-34.8860114180413,"lon":-58.3818301842512}},{"categoria":"Entidad","fuente":"INDEC","municipio":{"nombre":"Almirante Brown","id":"060028"},"departamento":{"nombre":"Almirante Brown","id":"06028"},"nombre":"JOSE MARMOL","id":"06028010006","provincia":{"nombre":"Buenos Aires","id":"06"},"localidad_censal":{"nombre":"Almirante Brown","id":"06028010"},"centroide":{"lat":-34.7851442510713,"lon":-58.3681475603787}},{"categoria":"Entidad","fuente":"INDEC","municipio":{"nombre":"Almirante Brown","id":"060028"},"departamento":{"nombre":"Almirante Brown","id":"06028"},"nombre":"LONGCHAMPS","id":"06028010007","provincia":{"nombre":"Buenos Aires","id":"06"},"localidad_censal":{"nombre":"Almirante Brown","id":"06028010"},"centroide":{"lat":-34.8609450255718,"lon":-58.3891476922426}},{"categoria":"Entidad","fuente":"INDEC","municipio":{"nombre":"Almirante Brown","id":"060028"},"departamento":{"nombre":"Almirante Brown","id":"06028"},"nombre":"MALVINAS ARGENTINAS","id":"06028010008","provincia":{"nombre":"Buenos Aires","id":"06"},"localidad_censal":{"nombre":"Almirante Brown","id":"06028010"},"centroide":{"lat":-34.8189583169642,"lon":-58.4235610606239}},{"categoria":"Entidad","fuente":"INDEC","municipio":{"nombre":"Almirante Brown","id":"060028"},"departamento":{"nombre":"Almirante Brown","id":"06028"},"nombre":"MINISTRO RIVADAVIA","id":"06028010009","provincia":{"nombre":"Buenos Aires","id":"06"},"localidad_censal":{"nombre":"Almirante Brown","id":"06028010"},"centroide":{"lat":-34.8556895005541,"lon":-58.361646542791}},{"categoria":"Entidad","fuente":"INDEC","municipio":{"nombre":"Almirante Brown","id":"060028"},"departamento":{"nombre":"Almirante Brown","id":"06028"},"nombre":"RAFAEL CALZADA","id":"06028010010","provincia":{"nombre":"Buenos Aires","id":"06"},"localidad_censal":{"nombre":"Almirante Brown","id":"06028010"},"centroide":{"lat":-34.7911367513318,"lon":-58.350598184222}},{"categoria":"Entidad","fuente":"INDEC","municipio":{"nombre":"Almirante Brown","id":"060028"},"departamento":{"nombre":"Almirante Brown","id":"06028"},"nombre":"SAN FRANCISCO SOLANO","id":"06028010011","provincia":{"nombre":"Buenos Aires","id":"06"},"localidad_censal":{"nombre":"Almirante Brown","id":"06028010"},"centroide":{"lat":-34.7866743578473,"lon":-58.3219363521574}},{"categoria":"Entidad","fuente":"INDEC","municipio":{"nombre":"Almirante Brown","id":"060028"},"departamento":{"nombre":"Almirante Brown","id":"06028"},"nombre":"SAN JOSE","id":"06028010012","provincia":{"nombre":"Buenos Aires","id":"06"},"localidad_censal":{"nombre":"Almirante Brown","id":"06028010"},"centroide":{"lat":-34.7673771924196,"lon":-58.3432771404358}},{"categoria":"Entidad","fuente":"INDEC","municipio":{"nombre":"Avellaneda","id":"060035"},"departamento":{"nombre":"Avellaneda","id":"06035"},"nombre":"AREA CINTURON ECOLOGICO","id":"06035010001","provincia":{"nombre":"Buenos Aires","id":"06"},"localidad_censal":{"nombre":"Avellaneda","id":"06035010"},"centroide":{"lat":-34.6750056478488,"lon":-58.3105634248142}},{"categoria":"Entidad","fuente":"INDEC","municipio":{"nombre":"Avellaneda","id":"060035"},"departamento":{"nombre":"Avellaneda","id":"06035"},"nombre":"AVELLANEDA","id":"06035010002","provincia":{"nombre":"Buenos Aires","id":"06"},"localidad_censal":{"nombre":"Avellaneda","id":"06035010"},"centroide":{"lat":-34.6626508059016,"lon":-58.3656990232718}},{"categoria":"Entidad","fuente":"INDEC","municipio":{"nombre":"Avellaneda","id":"060035"},"departamento":{"nombre":"Avellaneda","id":"06035"},"nombre":"CRUCESITA","id":"06035010003","provincia":{"nombre":"Buenos Aires","id":"06"},"localidad_censal":{"nombre":"Avellaneda","id":"06035010"},"centroide":{"lat":-34.66910587351,"lon":-58.3574544412345}},{"categoria":"Entidad","fuente":"INDEC","municipio":{"nombre":"Avellaneda","id":"060035"},"departamento":{"nombre":"Avellaneda","id":"06035"},"nombre":"DOCK SUD","id":"06035010004","provincia":{"nombre":"Buenos Aires","id":"06"},"localidad_censal":{"nombre":"Avellaneda","id":"06035010"},"centroide":{"lat":-34.6491266928534,"lon":-58.3411774769136}},{"categoria":"Entidad","fuente":"INDEC","municipio":{"nombre":"Avellaneda","id":"060035"},"departamento":{"nombre":"Avellaneda","id":"06035"},"nombre":"GERLI","id":"06035010005","provincia":{"nombre":"Buenos Aires","id":"06"},"localidad_censal":{"nombre":"Avellaneda","id":"06035010"},"centroide":{"lat":-34.6847637540553,"lon":-58.3726025503412}},{"categoria":"Entidad","fuente":"INDEC","municipio":{"nombre":"Avellaneda","id":"060035"},"departamento":{"nombre":"Avellaneda","id":"06035"},"nombre":"PIÑEYRO","id":"06035010006","provincia":{"nombre":"Buenos Aires","id":"06"},"localidad_censal":{"nombre":"Avellaneda","id":"06035010"},"centroide":{"lat":-34.6685497926645,"lon":-58.3886029123689}},{"categoria":"Entidad","fuente":"INDEC","municipio":{"nombre":"Avellaneda","id":"060035"},"departamento":{"nombre":"Avellaneda","id":"06035"},"nombre":"SARANDI","id":"06035010007","provincia":{"nombre":"Buenos Aires","id":"06"},"localidad_censal":{"nombre":"Avellaneda","id":"06035010"},"centroide":{"lat":-34.6843716640855,"lon":-58.348101313379}},{"categoria":"Entidad","fuente":"INDEC","municipio":{"nombre":"Avellaneda","id":"060035"},"departamento":{"nombre":"Avellaneda","id":"06035"},"nombre":"VILLA DOMINICO","id":"06035010008","provincia":{"nombre":"Buenos Aires","id":"06"},"localidad_censal":{"nombre":"Avellaneda","id":"06035010"},"centroide":{"lat":-34.6986315148924,"lon":-58.3363602646664}},{"categoria":"Entidad","fuente":"INDEC","municipio":{"nombre":"Avellaneda","id":"060035"},"departamento":{"nombre":"Avellaneda","id":"06035"},"nombre":"WILDE","id":"06035010009","provincia":{"nombre":"Buenos Aires","id":"06"},"localidad_censal":{"nombre":"Avellaneda","id":"06035010"},"centroide":{"lat":-34.7061588356333,"lon":-58.3218349208501}},{"categoria":"Localidad simple","fuente":"INDEC","municipio":{"nombre":"Ayacucho","id":"060042"},"departamento":{"nombre":"Ayacucho","id":"06042"},"nombre":"AYACUCHO","id":"06042010000","provincia":{"nombre":"Buenos Aires","id":"06"},"localidad_censal":{"nombre":"Ayacucho","id":"06042010"},"centroide":{"lat":-37.1536695670417,"lon":-58.4895476662462}},{"categoria":"Localidad simple","fuente":"INDEC","municipio":{"nombre":"Ayacucho","id":"060042"},"departamento":{"nombre":"Ayacucho","id":"06042"},"nombre":"LA CONSTANCIA","id":"06042020000","provincia":{"nombre":"Buenos Aires","id":"06"},"localidad_censal":{"nombre":"La Constancia","id":"06042020"},"centroide":{"lat":-37.2286256057071,"lon":-58.7603890048806}},{"categoria":"Localidad simple","fuente":"INDEC","municipio":{"nombre":"Ayacucho","id":"060042"},"departamento":{"nombre":"Ayacucho","id":"06042"},"nombre":"SOLANET","id":"06042030000","provincia":{"nombre":"Buenos Aires","id":"06"},"localidad_censal":{"nombre":"Solanet","id":"06042030"},"centroide":{"lat":-36.8444984439739,"lon":-58.5071421689017}},{"categoria":"Localidad simple","fuente":"INDEC","municipio":{"nombre":"Ayacucho","id":"060042"},"departamento":{"nombre":"Ayacucho","id":"06042"},"nombre":"UDAQUIOLA","id":"06042040000","provincia":{"nombre":"Buenos Aires","id":"06"},"localidad_censal":{"nombre":"Udaquiola","id":"06042040"},"centroide":{"lat":-36.5637513540211,"lon":-58.5333344196536}},{"categoria":"Localidad simple","fuente":"INDEC","municipio":{"nombre":"Azul","id":"060049"},"departamento":{"nombre":"Azul","id":"06049"},"nombre":"ARIEL","id":"06049010000","provincia":{"nombre":"Buenos Aires","id":"06"},"localidad_censal":{"nombre":"Ariel","id":"06049010"},"centroide":{"lat":-36.5312544192466,"lon":-59.9200651844348}},{"categoria":"Localidad simple","fuente":"INDEC","municipio":{"nombre":"Azul","id":"060049"},"departamento":{"nombre":"Azul","id":"06049"},"nombre":"AZUL","id":"06049020000","provincia":{"nombre":"Buenos Aires","id":"06"},"localidad_censal":{"nombre":"Azul","id":"06049020"},"centroide":{"lat":-36.7795144970313,"lon":-59.8586331707414}},{"categoria":"Localidad simple","fuente":"INDEC","municipio":{"nombre":"Azul","id":"060049"},"departamento":{"nombre":"Azul","id":"06049"},"nombre":"CACHARI","id":"06049030000","provincia":{"nombre":"Buenos Aires","id":"06"},"localidad_censal":{"nombre":"Cacharí","id":"06049030"},"centroide":{"lat":-36.3805626332947,"lon":-59.5030645507265}},{"categoria":"Localidad simple","fuente":"INDEC","municipio":{"nombre":"Azul","id":"060049"},"departamento":{"nombre":"Azul","id":"06049"},"nombre":"CHILLAR","id":"06049040000","provincia":{"nombre":"Buenos Aires","id":"06"},"localidad_censal":{"nombre":"Chillar","id":"06049040"},"centroide":{"lat":-37.3150113247344,"lon":-59.9853181679139}},{"categoria":"Localidad simple","fuente":"INDEC","municipio":{"nombre":"Azul","id":"060049"},"departamento":{"nombre":"Azul","id":"06049"},"nombre":"16 DE JULIO","id":"06049050000","provincia":{"nombre":"Buenos Aires","id":"06"},"localidad_censal":{"nombre":"16 de Julio","id":"06049050"},"centroide":{"lat":-37.2020524773603,"lon":-60.1652139181813}},{"categoria":"Entidad","fuente":"INDEC","municipio":{"nombre":"Bahía Blanca","id":"060056"},"departamento":{"nombre":"Bahía Blanca","id":"06056"},"nombre":"BAHIA BLANCA","id":"06056010001","provincia":{"nombre":"Buenos Aires","id":"06"},"localidad_censal":{"nombre":"Bahía Blanca","id":"06056010"},"centroide":{"lat":-38.7114037284555,"lon":-62.2569089501864}},{"categoria":"Entidad","fuente":"INDEC","municipio":{"nombre":"Bahía Blanca","id":"060056"},"departamento":{"nombre":"Bahía Blanca","id":"06056"},"nombre":"GRÜNBEIN","id":"06056010002","provincia":{"nombre":"Buenos Aires","id":"06"},"localidad_censal":{"nombre":"Bahía Blanca","id":"06056010"},"centroide":{"lat":-38.7471079502848,"lon":-62.1891166907456}},{"categoria":"Entidad","fuente":"INDEC","municipio":{"nombre":"Bahía Blanca","id":"060056"},"departamento":{"nombre":"Bahía Blanca","id":"06056"},"nombre":"INGENIERO WHITE","id":"06056010003","provincia":{"nombre":"Buenos Aires","id":"06"},"localidad_censal":{"nombre":"Bahía Blanca","id":"06056010"},"centroide":{"lat":-38.7794670416666,"lon":-62.262951248824}},{"categoria":"Entidad","fuente":"INDEC","municipio":{"nombre":"Bahía Blanca","id":"060056"},"departamento":{"nombre":"Bahía Blanca","id":"06056"},"nombre":"VILLA BORDEAU","id":"06056010004","provincia":{"nombre":"Buenos Aires","id":"06"},"localidad_censal":{"nombre":"Bahía Blanca","id":"06056010"},"centroide":{"lat":-38.6472605094596,"lon":-62.3200223419024}},{"categoria":"Entidad","fuente":"INDEC","municipio":{"nombre":"Bahía Blanca","id":"060056"},"departamento":{"nombre":"Bahía Blanca","id":"06056"},"nombre":"VILLA ESPORA","id":"06056010005","provincia":{"nombre":"Buenos Aires","id":"06"},"localidad_censal":{"nombre":"Bahía Blanca","id":"06056010"},"centroide":{"lat":-38.7765069529222,"lon":-62.1851833537179}},{"categoria":"Localidad simple","fuente":"INDEC","municipio":{"nombre":"Bahía Blanca","id":"060056"},"departamento":{"nombre":"Bahía Blanca","id":"06056"},"nombre":"CABILDO","id":"06056020000","provincia":{"nombre":"Buenos Aires","id":"06"},"localidad_censal":{"nombre":"Cabildo","id":"06056020"},"centroide":{"lat":-38.4838572081944,"lon":-61.8926015349487}},{"categoria":"Localidad simple","fuente":"INDEC","municipio":{"nombre":"Bahía Blanca","id":"060056"},"departamento":{"nombre":"Bahía Blanca","id":"06056"},"nombre":"GENERAL DANIEL CERRI","id":"06056030000","provincia":{"nombre":"Buenos Aires","id":"06"},"localidad_censal":{"nombre":"General Daniel Cerri","id":"06056030"},"centroide":{"lat":-38.7136524854986,"lon":-62.3924221653991}},{"categoria":"Localidad simple","fuente":"INDEC","municipio":{"nombre":"Balcarce","id":"060063"},"departamento":{"nombre":"Balcarce","id":"06063"},"nombre":"BALCARCE","id":"06063010000","provincia":{"nombre":"Buenos Aires","id":"06"},"localidad_censal":{"nombre":"Balcarce","id":"06063010"},"centroide":{"lat":-37.8482779294345,"lon":-58.2551665841248}},{"categoria":"Localidad simple","fuente":"INDEC","municipio":{"nombre":"Balcarce","id":"060063"},"departamento":{"nombre":"Balcarce","id":"06063"},"nombre":"LOS PINOS","id":"06063020000","provincia":{"nombre":"Buenos Aires","id":"06"},"localidad_censal":{"nombre":"Los Pinos","id":"06063020"},"centroide":{"lat":-37.9412057603,"lon":-58.3225920150442}},{"categoria":"Localidad simple","fuente":"INDEC","municipio":{"nombre":"Balcarce","id":"060063"},"departamento":{"nombre":"Balcarce","id":"06063"},"nombre":"NAPALEOFU","id":"06063030000","provincia":{"nombre":"Buenos Aires","id":"06"},"localidad_censal":{"nombre":"Napaleofú","id":"06063030"},"centroide":{"lat":-37.6254980210026,"lon":-58.7461862359423}},{"categoria":"Localidad simple","fuente":"INDEC","municipio":{"nombre":"Balcarce","id":"060063"},"departamento":{"nombre":"Balcarce","id":"06063"},"nombre":"RAMOS OTERO","id":"06063040000","provincia":{"nombre":"Buenos Aires","id":"06"},"localidad_censal":{"nombre":"Ramos Otero","id":"06063040"},"centroide":{"lat":-37.5426353712017,"lon":-58.3407185507274}},{"categoria":"Localidad simple","fuente":"INDEC","municipio":{"nombre":"Balcarce","id":"060063"},"departamento":{"nombre":"Balcarce","id":"06063"},"nombre":"SAN AGUSTIN","id":"06063050000","provincia":{"nombre":"Buenos Aires","id":"06"},"localidad_censal":{"nombre":"San Agustín","id":"06063050"},"centroide":{"lat":-38.0122838564587,"lon":-58.355377761682}},{"categoria":"Localidad simple","fuente":"INDEC","municipio":{"nombre":"Balcarce","id":"060063"},"departamento":{"nombre":"Balcarce","id":"06063"},"nombre":"VILLA LAGUNA LA BRAVA","id":"06063060000","provincia":{"nombre":"Buenos Aires","id":"06"},"localidad_censal":{"nombre":"Villa Laguna La Brava","id":"06063060"},"centroide":{"lat":-37.8596285282151,"lon":-57.9806008736401}},{"categoria":"Localidad simple","fuente":"INDEC","municipio":{"nombre":"Baradero","id":"060070"},"departamento":{"nombre":"Baradero","id":"06070"},"nombre":"BARADERO","id":"06070010000","provincia":{"nombre":"Buenos Aires","id":"06"},"localidad_censal":{"nombre":"Baradero","id":"06070010"},"centroide":{"lat":-33.8128781547156,"lon":-59.5043068852807}},{"categoria":"Localidad simple","fuente":"INDEC","municipio":{"nombre":"Baradero","id":"060070"},"departamento":{"nombre":"Baradero","id":"06070"},"nombre":"IRINEO PORTELA","id":"06070020000","provincia":{"nombre":"Buenos Aires","id":"06"},"localidad_censal":{"nombre":"Irineo Portela","id":"06070020"},"centroide":{"lat":-33.9810489198561,"lon":-59.6715601606315}},{"categoria":"Localidad simple","fuente":"INDEC","municipio":{"nombre":"Baradero","id":"060070"},"departamento":{"nombre":"Baradero","id":"06070"},"nombre":"SANTA COLOMA","id":"06070030000","provincia":{"nombre":"Buenos Aires","id":"06"},"localidad_censal":{"nombre":"Santa Coloma","id":"06070030"},"centroide":{"lat":-34.062154134736,"lon":-59.5585420642846}},{"categoria":"Localidad simple","fuente":"INDEC","municipio":{"nombre":"Baradero","id":"060070"},"departamento":{"nombre":"Baradero","id":"06070"},"nombre":"VILLA ALSINA","id":"06070040000","provincia":{"nombre":"Buenos Aires","id":"06"},"localidad_censal":{"nombre":"Villa Alsina","id":"06070040"},"centroide":{"lat":-33.9096038045591,"lon":-59.3882017132282}},{"categoria":"Localidad simple","fuente":"INDEC","municipio":{"nombre":"Arrecifes","id":"060077"},"departamento":{"nombre":"Arrecifes","id":"06077"},"nombre":"ARRECIFES","id":"06077010000","provincia":{"nombre":"Buenos Aires","id":"06"},"localidad_censal":{"nombre":"Arrecifes","id":"06077010"},"centroide":{"lat":-34.064591121211,"lon":-60.1025564443537}},{"categoria":"Localidad simple","fuente":"INDEC","municipio":{"nombre":"Arrecifes","id":"060077"},"departamento":{"nombre":"Arrecifes","id":"06077"},"nombre":"TODD","id":"06077020000","provincia":{"nombre":"Buenos Aires","id":"06"},"localidad_censal":{"nombre":"Todd","id":"06077020"},"centroide":{"lat":-34.0328240475348,"lon":-60.1562270065746}},{"categoria":"Localidad simple","fuente":"INDEC","municipio":{"nombre":"Arrecifes","id":"060077"},"departamento":{"nombre":"Arrecifes","id":"06077"},"nombre":"VI¥A","id":"06077030000","provincia":{"nombre":"Buenos Aires","id":"06"},"localidad_censal":{"nombre":"Viña","id":"06077030"},"centroide":{"lat":-33.9922765156087,"lon":-60.2263211205477}},{"categoria":"Localidad simple","fuente":"INDEC","municipio":{"nombre":"Benito Juárez","id":"060084"},"departamento":{"nombre":"Benito Juárez","id":"06084"},"nombre":"BARKER","id":"06084010000","provincia":{"nombre":"Buenos Aires","id":"06"},"localidad_censal":{"nombre":"Barker","id":"06084010"},"centroide":{"lat":-37.6424111302365,"lon":-59.3889380312927}},{"categoria":"Localidad simple","fuente":"INDEC","municipio":{"nombre":"Benito Juárez","id":"060084"},"departamento":{"nombre":"Benito Juárez","id":"06084"},"nombre":"BENITO JUAREZ","id":"06084020000","provincia":{"nombre":"Buenos Aires","id":"06"},"localidad_censal":{"nombre":"Benito Juárez","id":"06084020"},"centroide":{"lat":-37.6766410210105,"lon":-59.8057677109444}},{"categoria":"Localidad simple","fuente":"INDEC","municipio":{"nombre":"Benito Juárez","id":"060084"},"departamento":{"nombre":"Benito Juárez","id":"06084"},"nombre":"LOPEZ","id":"06084030000","provincia":{"nombre":"Buenos Aires","id":"06"},"localidad_censal":{"nombre":"López","id":"06084030"},"centroide":{"lat":-37.5545120854221,"lon":-59.6278461536299}},{"categoria":"Localidad simple","fuente":"INDEC","municipio":{"nombre":"Benito Juárez","id":"060084"},"departamento":{"nombre":"Benito Juárez","id":"06084"},"nombre":"TEDIN URIBURU","id":"06084040000","provincia":{"nombre":"Buenos Aires","id":"06"},"localidad_censal":{"nombre":"Tedín Uriburu","id":"06084040"},"centroide":{"lat":-37.3683686253208,"lon":-59.7630391604187}},{"categoria":"Localidad simple","fuente":"INDEC","municipio":{"nombre":"Benito Juárez","id":"060084"},"departamento":{"nombre":"Benito Juárez","id":"06084"},"nombre":"VILLA CACIQUE","id":"06084050000","provincia":{"nombre":"Buenos Aires","id":"06"},"localidad_censal":{"nombre":"Villa Cacique","id":"06084050"},"centroide":{"lat":-37.6704778893557,"lon":-59.4003533386514}},{"categoria":"Entidad","fuente":"INDEC","municipio":{"nombre":"Berazategui","id":"060091"},"departamento":{"nombre":"Berazategui","id":"06091"},"nombre":"BERAZATEGUI","id":"06091010001","provincia":{"nombre":"Buenos Aires","id":"06"},"localidad_censal":{"nombre":"Berazategui","id":"06091010"},"centroide":{"lat":-34.7597493264937,"lon":-58.2019645234278}},{"categoria":"Entidad","fuente":"INDEC","municipio":{"nombre":"Berazategui","id":"060091"},"departamento":{"nombre":"Berazategui","id":"06091"},"nombre":"BERAZATEGUI OESTE","id":"06091010002","provincia":{"nombre":"Buenos Aires","id":"06"},"localidad_censal":{"nombre":"Berazategui","id":"06091010"},"centroide":{"lat":-34.7804201858899,"lon":-58.2415010261207}},{"categoria":"Entidad","fuente":"INDEC","municipio":{"nombre":"Berazategui","id":"060091"},"departamento":{"nombre":"Berazategui","id":"06091"},"nombre":"CARLOS TOMAS SOURIGUES","id":"06091010003","provincia":{"nombre":"Buenos Aires","id":"06"},"localidad_censal":{"nombre":"Berazategui","id":"06091010"},"centroide":{"lat":-34.8021192214631,"lon":-58.2188212494897}},{"categoria":"Entidad","fuente":"INDEC","municipio":{"nombre":"Berazategui","id":"060091"},"departamento":{"nombre":"Berazategui","id":"06091"},"nombre":"EL PATO","id":"06091010004","provincia":{"nombre":"Buenos Aires","id":"06"},"localidad_censal":{"nombre":"Berazategui","id":"06091010"},"centroide":{"lat":-34.9067557072114,"lon":-58.1966995021239}},{"categoria":"Entidad","fuente":"INDEC","municipio":{"nombre":"Berazategui","id":"060091"},"departamento":{"nombre":"Berazategui","id":"06091"},"nombre":"GUILLERMO ENRIQUE HUDSON","id":"06091010005","provincia":{"nombre":"Buenos Aires","id":"06"},"localidad_censal":{"nombre":"Berazategui","id":"06091010"},"centroide":{"lat":-34.7897594857633,"lon":-58.1439692638183}},{"categoria":"Entidad","fuente":"INDEC","municipio":{"nombre":"Berazategui","id":"060091"},"departamento":{"nombre":"Berazategui","id":"06091"},"nombre":"JUAN MARIA GUTIERREZ","id":"06091010006","provincia":{"nombre":"Buenos Aires","id":"06"},"localidad_censal":{"nombre":"Berazategui","id":"06091010"},"centroide":{"lat":-34.8348420760566,"lon":-58.1819061125702}},{"categoria":"Entidad","fuente":"INDEC","municipio":{"nombre":"Berazategui","id":"060091"},"departamento":{"nombre":"Berazategui","id":"06091"},"nombre":"PEREYRA","id":"06091010007","provincia":{"nombre":"Buenos Aires","id":"06"},"localidad_censal":{"nombre":"Berazategui","id":"06091010"},"centroide":{"lat":-34.8471945391094,"lon":-58.1392765205344}},{"categoria":"Entidad","fuente":"INDEC","municipio":{"nombre":"Berazategui","id":"060091"},"departamento":{"nombre":"Berazategui","id":"06091"},"nombre":"PLATANOS","id":"06091010008","provincia":{"nombre":"Buenos Aires","id":"06"},"localidad_censal":{"nombre":"Berazategui","id":"06091010"},"centroide":{"lat":-34.7674201820877,"lon":-58.1652686003148}},{"categoria":"Entidad","fuente":"INDEC","municipio":{"nombre":"Berazategui","id":"060091"},"departamento":{"nombre":"Berazategui","id":"06091"},"nombre":"RANELAGH","id":"06091010009","provincia":{"nombre":"Buenos Aires","id":"06"},"localidad_censal":{"nombre":"Berazategui","id":"06091010"},"centroide":{"lat":-34.7941468501172,"lon":-58.1989815634425}},{"categoria":"Entidad","fuente":"INDEC","municipio":{"nombre":"Berazategui","id":"060091"},"departamento":{"nombre":"Berazategui","id":"06091"},"nombre":"VILLA ESPAÑA","id":"06091010010","provincia":{"nombre":"Buenos Aires","id":"06"},"localidad_censal":{"nombre":"Berazategui","id":"06091010"},"centroide":{"lat":-34.776063416904,"lon":-58.2002532983623}},{"categoria":"Entidad","fuente":"INDEC","municipio":{"nombre":"Berisso","id":"060098"},"departamento":{"nombre":"Berisso","id":"06098"},"nombre":"BARRIO BANCO PROVINCIA","id":"06098010001","provincia":{"nombre":"Buenos Aires","id":"06"},"localidad_censal":{"nombre":"Berisso","id":"06098010"},"centroide":{"lat":-34.8752589900973,"lon":-57.8550856662876}},{"categoria":"Entidad","fuente":"INDEC","municipio":{"nombre":"Berisso","id":"060098"},"departamento":{"nombre":"Berisso","id":"06098"},"nombre":"BARRIO EL CARMEN (ESTE)","id":"06098010002","provincia":{"nombre":"Buenos Aires","id":"06"},"localidad_censal":{"nombre":"Berisso","id":"06098010"},"centroide":{"lat":-34.9293102150655,"lon":-57.8853552505795}},{"categoria":"Entidad","fuente":"INDEC","municipio":{"nombre":"Berisso","id":"060098"},"departamento":{"nombre":"Berisso","id":"06098"},"nombre":"BARRIO UNIVERSITARIO","id":"06098010003","provincia":{"nombre":"Buenos Aires","id":"06"},"localidad_censal":{"nombre":"Berisso","id":"06098010"},"centroide":{"lat":-34.9027528834433,"lon":-57.9270884333304}},{"categoria":"Entidad","fuente":"INDEC","municipio":{"nombre":"Berisso","id":"060098"},"departamento":{"nombre":"Berisso","id":"06098"},"nombre":"BERISSO","id":"06098010004","provincia":{"nombre":"Buenos Aires","id":"06"},"localidad_censal":{"nombre":"Berisso","id":"06098010"},"centroide":{"lat":-34.8746353679645,"lon":-57.8947472316799}},{"categoria":"Entidad","fuente":"INDEC","municipio":{"nombre":"Berisso","id":"060098"},"departamento":{"nombre":"Berisso","id":"06098"},"nombre":"LOS TALAS","id":"06098010005","provincia":{"nombre":"Buenos Aires","id":"06"},"localidad_censal":{"nombre":"Berisso","id":"06098010"},"centroide":{"lat":-34.9190209219847,"lon":-57.7909954962894}},{"categoria":"Entidad","fuente":"INDEC","municipio":{"nombre":"Berisso","id":"060098"},"departamento":{"nombre":"Berisso","id":"06098"},"nombre":"VILLA ARGÜELLO","id":"06098010006","provincia":{"nombre":"Buenos Aires","id":"06"},"localidad_censal":{"nombre":"Berisso","id":"06098010"},"centroide":{"lat":-34.9053981881099,"lon":-57.9180815078165}},{"categoria":"Entidad","fuente":"INDEC","municipio":{"nombre":"Berisso","id":"060098"},"departamento":{"nombre":"Berisso","id":"06098"},"nombre":"VILLA DOLORES","id":"06098010007","provincia":{"nombre":"Buenos Aires","id":"06"},"localidad_censal":{"nombre":"Berisso","id":"06098010"},"centroide":{"lat":-34.8802085383888,"lon":-57.8663036732616}},{"categoria":"Entidad","fuente":"INDEC","municipio":{"nombre":"Berisso","id":"060098"},"departamento":{"nombre":"Berisso","id":"06098"},"nombre":"VILLA INDEPENDENCIA","id":"06098010008","provincia":{"nombre":"Buenos Aires","id":"06"},"localidad_censal":{"nombre":"Berisso","id":"06098010"},"centroide":{"lat":-34.8829519743895,"lon":-57.8614892695719}},{"categoria":"Entidad","fuente":"INDEC","municipio":{"nombre":"Berisso","id":"060098"},"departamento":{"nombre":"Berisso","id":"06098"},"nombre":"VILLA NUEVA","id":"06098010009","provincia":{"nombre":"Buenos Aires","id":"06"},"localidad_censal":{"nombre":"Berisso","id":"06098010"},"centroide":{"lat":-34.8957079362353,"lon":-57.9108816644737}},{"categoria":"Entidad","fuente":"INDEC","municipio":{"nombre":"Berisso","id":"060098"},"departamento":{"nombre":"Berisso","id":"06098"},"nombre":"VILLA PORTEÑA","id":"06098010010","provincia":{"nombre":"Buenos Aires","id":"06"},"localidad_censal":{"nombre":"Berisso","id":"06098010"},"centroide":{"lat":-34.891043310448,"lon":-57.8963773978494}},{"categoria":"Entidad","fuente":"INDEC","municipio":{"nombre":"Berisso","id":"060098"},"departamento":{"nombre":"Berisso","id":"06098"},"nombre":"VILLA PROGRESO","id":"06098010011","provincia":{"nombre":"Buenos Aires","id":"06"},"localidad_censal":{"nombre":"Berisso","id":"06098010"},"centroide":{"lat":-34.9308766123633,"lon":-57.8468799885622}},{"categoria":"Entidad","fuente":"INDEC","municipio":{"nombre":"Berisso","id":"060098"},"departamento":{"nombre":"Berisso","id":"06098"},"nombre":"VILLA SAN CARLOS","id":"06098010012","provincia":{"nombre":"Buenos Aires","id":"06"},"localidad_censal":{"nombre":"Berisso","id":"06098010"},"centroide":{"lat":-34.8838130805,"lon":-57.87701595642}},{"categoria":"Entidad","fuente":"INDEC","municipio":{"nombre":"Berisso","id":"060098"},"departamento":{"nombre":"Berisso","id":"06098"},"nombre":"VILLA ZULA","id":"06098010013","provincia":{"nombre":"Buenos Aires","id":"06"},"localidad_censal":{"nombre":"Berisso","id":"06098010"},"centroide":{"lat":-34.9221646298322,"lon":-57.8009664840662}},{"categoria":"Localidad simple","fuente":"INDEC","municipio":{"nombre":"Bolívar","id":"060105"},"departamento":{"nombre":"Bolívar","id":"06105"},"nombre":"HALE","id":"06105010000","provincia":{"nombre":"Buenos Aires","id":"06"},"localidad_censal":{"nombre":"Hale","id":"06105010"},"centroide":{"lat":-36.0010429767568,"lon":-60.8534495072374}},{"categoria":"Localidad simple","fuente":"INDEC","municipio":{"nombre":"Bolívar","id":"060105"},"departamento":{"nombre":"Bolívar","id":"06105"},"nombre":"JUAN F. IBARRA","id":"06105020000","provincia":{"nombre":"Buenos Aires","id":"06"},"localidad_censal":{"nombre":"Juan F. Ibarra","id":"06105020"},"centroide":{"lat":-36.3498770527922,"lon":-61.2552591224518}},{"categoria":"Localidad simple","fuente":"INDEC","municipio":{"nombre":"Bolívar","id":"060105"},"departamento":{"nombre":"Bolívar","id":"06105"},"nombre":"PAULA","id":"06105040000","provincia":{"nombre":"Buenos Aires","id":"06"},"localidad_censal":{"nombre":"Paula","id":"06105040"},"centroide":{"lat":-36.5053183545527,"lon":-61.0243287245345}},{"categoria":"Localidad simple","fuente":"INDEC","municipio":{"nombre":"Bolívar","id":"060105"},"departamento":{"nombre":"Bolívar","id":"06105"},"nombre":"PIROVANO","id":"06105050000","provincia":{"nombre":"Buenos Aires","id":"06"},"localidad_censal":{"nombre":"Pirovano","id":"06105050"},"centroide":{"lat":-36.5109170215402,"lon":-61.5545516558692}},{"categoria":"Localidad simple","fuente":"INDEC","municipio":{"nombre":"Bolívar","id":"060105"},"departamento":{"nombre":"Bolívar","id":"06105"},"nombre":"SAN CARLOS DE BOLIVAR","id":"06105060000","provincia":{"nombre":"Buenos Aires","id":"06"},"localidad_censal":{"nombre":"San Carlos de Bolívar","id":"06105060"},"centroide":{"lat":-36.2295602208798,"lon":-61.1131898679983}},{"categoria":"Localidad simple","fuente":"INDEC","municipio":{"nombre":"Bolívar","id":"060105"},"departamento":{"nombre":"Bolívar","id":"06105"},"nombre":"URDAMPILLETA","id":"06105070000","provincia":{"nombre":"Buenos Aires","id":"06"},"localidad_censal":{"nombre":"Urdampilleta","id":"06105070"},"centroide":{"lat":-36.4329292363695,"lon":-61.4191160192421}},{"categoria":"Localidad simple","fuente":"INDEC","municipio":{"nombre":"Bolívar","id":"060105"},"departamento":{"nombre":"Bolívar","id":"06105"},"nombre":"VILLA LYNCH PUEYRREDON","id":"06105080000","provincia":{"nombre":"Buenos Aires","id":"06"},"localidad_censal":{"nombre":"Villa Lynch Pueyrredón","id":"06105080"},"centroide":{"lat":-36.6025793254646,"lon":-61.3618625494725}},{"categoria":"Localidad simple","fuente":"INDEC","municipio":{"nombre":"Bragado","id":"060112"},"departamento":{"nombre":"Bragado","id":"06112"},"nombre":"ASAMBLEA","id":"06112005000","provincia":{"nombre":"Buenos Aires","id":"06"},"localidad_censal":{"nombre":"Asamblea","id":"06112005"},"centroide":{"lat":-35.2267581272748,"lon":-60.4168952837295}},{"categoria":"Localidad simple","fuente":"INDEC","municipio":{"nombre":"Bragado","id":"060112"},"departamento":{"nombre":"Bragado","id":"06112"},"nombre":"BRAGADO","id":"06112010000","provincia":{"nombre":"Buenos Aires","id":"06"},"localidad_censal":{"nombre":"Bragado","id":"06112010"},"centroide":{"lat":-35.118942299763,"lon":-60.4879147568209}},{"categoria":"Localidad simple","fuente":"INDEC","municipio":{"nombre":"Bragado","id":"060112"},"departamento":{"nombre":"Bragado","id":"06112"},"nombre":"COMODORO PY","id":"06112020000","provincia":{"nombre":"Buenos Aires","id":"06"},"localidad_censal":{"nombre":"Comodoro Py","id":"06112020"},"centroide":{"lat":-35.3233100374631,"lon":-60.5217314911689}},{"categoria":"Localidad simple","fuente":"INDEC","municipio":{"nombre":"Bragado","id":"060112"},"departamento":{"nombre":"Bragado","id":"06112"},"nombre":"GENERAL O'BRIEN","id":"06112030000","provincia":{"nombre":"Buenos Aires","id":"06"},"localidad_censal":{"nombre":"General O'Brien","id":"06112030"},"centroide":{"lat":-34.9067979091956,"lon":-60.7597838238054}},{"categoria":"Localidad simple","fuente":"INDEC","municipio":{"nombre":"Bragado","id":"060112"},"departamento":{"nombre":"Bragado","id":"06112"},"nombre":"IRALA","id":"06112040000","provincia":{"nombre":"Buenos Aires","id":"06"},"localidad_censal":{"nombre":"Irala","id":"06112040"},"centroide":{"lat":-34.7718230311122,"lon":-60.6916912010278}},{"categoria":"Localidad simple","fuente":"INDEC","municipio":{"nombre":"Bragado","id":"060112"},"departamento":{"nombre":"Bragado","id":"06112"},"nombre":"LA LIMPIA","id":"06112050000","provincia":{"nombre":"Buenos Aires","id":"06"},"localidad_censal":{"nombre":"La Limpia","id":"06112050"},"centroide":{"lat":-35.0797272650156,"lon":-60.5928546665185}},{"categoria":"Localidad simple","fuente":"INDEC","municipio":{"nombre":"Bragado","id":"060112"},"departamento":{"nombre":"Bragado","id":"06112"},"nombre":"MAXIMO FERNANDEZ","id":"06112060000","provincia":{"nombre":"Buenos Aires","id":"06"},"localidad_censal":{"nombre":"Juan F. Salaberry","id":"06112060"},"centroide":{"lat":-35.0615246745825,"lon":-60.7060741424473}},{"categoria":"Componente de localidad compuesta","fuente":"INDEC","municipio":{"nombre":"Bragado","id":"060112"},"departamento":{"nombre":"Bragado","id":"06112"},"nombre":"MECHITA","id":"06112070000","provincia":{"nombre":"Buenos Aires","id":"06"},"localidad_censal":{"nombre":"Mechita","id":"06112070"},"centroide":{"lat":-35.0699378566803,"lon":-60.4084937925362}},{"categoria":"Localidad simple","fuente":"INDEC","municipio":{"nombre":"Bragado","id":"060112"},"departamento":{"nombre":"Bragado","id":"06112"},"nombre":"OLASCOAGA","id":"06112080000","provincia":{"nombre":"Buenos Aires","id":"06"},"localidad_censal":{"nombre":"Olascoaga","id":"06112080"},"centroide":{"lat":-35.2375277927366,"lon":-60.6115341696178}},{"categoria":"Localidad simple","fuente":"INDEC","municipio":{"nombre":"Bragado","id":"060112"},"departamento":{"nombre":"Bragado","id":"06112"},"nombre":"WARNES","id":"06112090000","provincia":{"nombre":"Buenos Aires","id":"06"},"localidad_censal":{"nombre":"Warnes","id":"06112090"},"centroide":{"lat":-34.9098734445057,"lon":-60.5381681629003}},{"categoria":"Localidad simple","fuente":"INDEC","municipio":{"nombre":"Brandsen","id":"060119"},"departamento":{"nombre":"Brandsen","id":"06119"},"nombre":"ALTAMIRANO","id":"06119010000","provincia":{"nombre":"Buenos Aires","id":"06"},"localidad_censal":{"nombre":"Altamirano","id":"06119010"},"centroide":{"lat":-35.3615828022139,"lon":-58.1504868159157}},{"categoria":"Localidad simple","fuente":"INDEC","municipio":{"nombre":"Brandsen","id":"060119"},"departamento":{"nombre":"Brandsen","id":"06119"},"nombre":"BARRIO EL MIRADOR","id":"06119015000","provincia":{"nombre":"Buenos Aires","id":"06"},"localidad_censal":{"nombre":"Barrio El Mirador","id":"06119015"},"centroide":{"lat":-35.3145370547125,"lon":-58.0484420796345}},{"categoria":"Localidad simple","fuente":"INDEC","municipio":{"nombre":"Brandsen","id":"060119"},"departamento":{"nombre":"Brandsen","id":"06119"},"nombre":"BARRIO LAS GOLONDRINAS","id":"06119020000","provincia":{"nombre":"Buenos Aires","id":"06"},"localidad_censal":{"nombre":"Barrio Las Golondrinas","id":"06119020"},"centroide":{"lat":-35.0335777783556,"lon":-58.1935382681817}},{"categoria":"Localidad simple","fuente":"INDEC","municipio":{"nombre":"Brandsen","id":"060119"},"departamento":{"nombre":"Brandsen","id":"06119"},"nombre":"BARRIO LOS BOSQUECITOS","id":"06119030000","provincia":{"nombre":"Buenos Aires","id":"06"},"localidad_censal":{"nombre":"Barrio Los Bosquecitos","id":"06119030"},"centroide":{"lat":-35.1050389949725,"lon":-58.1835007859607}},{"categoria":"Localidad simple","fuente":"INDEC","municipio":{"nombre":"Brandsen","id":"060119"},"departamento":{"nombre":"Brandsen","id":"06119"},"nombre":"BARRIO PARQUE LAS ACACIAS","id":"06119040000","provincia":{"nombre":"Buenos Aires","id":"06"},"localidad_censal":{"nombre":"Barrio Parque Las Acacias","id":"06119040"},"centroide":{"lat":-35.1030329461442,"lon":-58.2730405375653}},{"categoria":"Localidad simple","fuente":"INDEC","municipio":{"nombre":"Brandsen","id":"060119"},"departamento":{"nombre":"Brandsen","id":"06119"},"nombre":"CAMPOS DE ROCA","id":"06119045000","provincia":{"nombre":"Buenos Aires","id":"06"},"localidad_censal":{"nombre":"Campos de Roca","id":"06119045"},"centroide":{"lat":-35.1149772603157,"lon":-58.0953896541907}},{"categoria":"Localidad simple","fuente":"INDEC","municipio":{"nombre":"Brandsen","id":"060119"},"departamento":{"nombre":"Brandsen","id":"06119"},"nombre":"CORONEL BRANDSEN","id":"06119050000","provincia":{"nombre":"Buenos Aires","id":"06"},"localidad_censal":{"nombre":"Coronel Brandsen","id":"06119050"},"centroide":{"lat":-35.1690983002919,"lon":-58.2373529446643}},{"categoria":"Localidad simple","fuente":"INDEC","municipio":{"nombre":"Brandsen","id":"060119"},"departamento":{"nombre":"Brandsen","id":"06119"},"nombre":"CLUB DE CAMPO LAS MALVINAS","id":"06119055000","provincia":{"nombre":"Buenos Aires","id":"06"},"localidad_censal":{"nombre":"Club de Campo Las Malvinas","id":"06119055"},"centroide":{"lat":-35.2139978115731,"lon":-58.2433030920635}},{"categoria":"Localidad simple","fuente":"INDEC","municipio":{"nombre":"Brandsen","id":"060119"},"departamento":{"nombre":"Brandsen","id":"06119"},"nombre":"GOMEZ","id":"06119060000","provincia":{"nombre":"Buenos Aires","id":"06"},"localidad_censal":{"nombre":"Gómez","id":"06119060"},"centroide":{"lat":-35.0693655332834,"lon":-58.1656899882306}},{"categoria":"Localidad simple","fuente":"INDEC","municipio":{"nombre":"Brandsen","id":"060119"},"departamento":{"nombre":"Brandsen","id":"06119"},"nombre":"JEPPENER","id":"06119070000","provincia":{"nombre":"Buenos Aires","id":"06"},"localidad_censal":{"nombre":"Jeppener","id":"06119070"},"centroide":{"lat":-35.2802043920968,"lon":-58.1996649431989}},{"categoria":"Localidad simple","fuente":"INDEC","municipio":{"nombre":"Brandsen","id":"060119"},"departamento":{"nombre":"Brandsen","id":"06119"},"nombre":"OLIDEN","id":"06119080000","provincia":{"nombre":"Buenos Aires","id":"06"},"localidad_censal":{"nombre":"Oliden","id":"06119080"},"centroide":{"lat":-35.1842584334678,"lon":-57.9479623248001}},{"categoria":"Localidad simple","fuente":"INDEC","municipio":{"nombre":"Brandsen","id":"060119"},"departamento":{"nombre":"Brandsen","id":"06119"},"nombre":"POSADA DE LOS LAGOS","id":"06119085000","provincia":{"nombre":"Buenos Aires","id":"06"},"localidad_censal":{"nombre":"Posada de los Lagos","id":"06119085"},"centroide":{"lat":-35.1499383981993,"lon":-58.0504528667351}},{"categoria":"Localidad simple","fuente":"INDEC","municipio":{"nombre":"Brandsen","id":"060119"},"departamento":{"nombre":"Brandsen","id":"06119"},"nombre":"SAMBOROMBON","id":"06119090000","provincia":{"nombre":"Buenos Aires","id":"06"},"localidad_censal":{"nombre":"Samborombón","id":"06119090"},"centroide":{"lat":-35.2206242719966,"lon":-58.2805297949826}},{"categoria":"Componente de localidad compuesta","fuente":"INDEC","municipio":{"nombre":"Campana","id":"060126"},"departamento":{"nombre":"Campana","id":"06126"},"nombre":"ALTO LOS CARDALES","id":"06126010000","provincia":{"nombre":"Buenos Aires","id":"06"},"localidad_censal":{"nombre":"Los Cardales","id":"06126010"},"centroide":{"lat":-34.3160243688815,"lon":-58.9784574815339}},{"categoria":"Localidad simple","fuente":"INDEC","municipio":{"nombre":"Campana","id":"060126"},"departamento":{"nombre":"Campana","id":"06126"},"nombre":"BARRIO LOS PIONEROS","id":"06126020000","provincia":{"nombre":"Buenos Aires","id":"06"},"localidad_censal":{"nombre":"Barrio Los Pioneros (Barrio Tavella)","id":"06126020"},"centroide":{"lat":-34.2530406367633,"lon":-58.9584400368589}},{"categoria":"Localidad simple","fuente":"INDEC","municipio":{"nombre":"Campana","id":"060126"},"departamento":{"nombre":"Campana","id":"06126"},"nombre":"CAMPANA","id":"06126030000","provincia":{"nombre":"Buenos Aires","id":"06"},"localidad_censal":{"nombre":"Campana","id":"06126030"},"centroide":{"lat":-34.1639618118269,"lon":-58.9588741035355}},{"categoria":"Componente de localidad compuesta","fuente":"INDEC","municipio":{"nombre":"Campana","id":"060126"},"departamento":{"nombre":"Campana","id":"06126"},"nombre":"CHACRAS DEL RIO LUJAN","id":"06126035000","provincia":{"nombre":"Buenos Aires","id":"06"},"localidad_censal":{"nombre":"Chacras del Río Luján","id":"06126035"},"centroide":{"lat":-34.2934153226239,"lon":-58.921199044246}},{"categoria":"Componente de localidad compuesta","fuente":"INDEC","municipio":{"nombre":"Campana","id":"060126"},"departamento":{"nombre":"Campana","id":"06126"},"nombre":"LOMAS DEL RIO LUJAN","id":"06126040000","provincia":{"nombre":"Buenos Aires","id":"06"},"localidad_censal":{"nombre":"Río Luján","id":"06126040"},"centroide":{"lat":-34.2816770641806,"lon":-58.8911906524052}},{"categoria":"Localidad simple","fuente":"INDEC","municipio":{"nombre":"Cañuelas","id":"060134"},"departamento":{"nombre":"Cañuelas","id":"06134"},"nombre":"ALEJANDRO PETION","id":"06134010000","provincia":{"nombre":"Buenos Aires","id":"06"},"localidad_censal":{"nombre":"Alejandro Petión","id":"06134010"},"centroide":{"lat":-34.9793768508134,"lon":-58.6749430768989}},{"categoria":"Localidad simple","fuente":"INDEC","municipio":{"nombre":"Cañuelas","id":"060134"},"departamento":{"nombre":"Cañuelas","id":"06134"},"nombre":"BARRIO EL TALADRO","id":"06134020000","provincia":{"nombre":"Buenos Aires","id":"06"},"localidad_censal":{"nombre":"Barrio El Taladro","id":"06134020"},"centroide":{"lat":-35.0742486164225,"lon":-58.8632420603475}},{"categoria":"Localidad simple","fuente":"INDEC","municipio":{"nombre":"Cañuelas","id":"060134"},"departamento":{"nombre":"Cañuelas","id":"06134"},"nombre":"CA¥UELAS","id":"06134030000","provincia":{"nombre":"Buenos Aires","id":"06"},"localidad_censal":{"nombre":"Cañuelas","id":"06134030"},"centroide":{"lat":-35.0527140350539,"lon":-58.7583856965375}},{"categoria":"Localidad simple","fuente":"INDEC","municipio":{"nombre":"Cañuelas","id":"060134"},"departamento":{"nombre":"Cañuelas","id":"06134"},"nombre":"GOBERNADOR UDAONDO","id":"06134040000","provincia":{"nombre":"Buenos Aires","id":"06"},"localidad_censal":{"nombre":"Gobernador Udaondo","id":"06134040"},"centroide":{"lat":-35.3003271130454,"lon":-58.5943053657455}},{"categoria":"Entidad","fuente":"INDEC","municipio":{"nombre":"Cañuelas","id":"060134"},"departamento":{"nombre":"Cañuelas","id":"06134"},"nombre":"BARRIO BELGRANO","id":"06134050001","provincia":{"nombre":"Buenos Aires","id":"06"},"localidad_censal":{"nombre":"Máximo Paz","id":"06134050"},"centroide":{"lat":-34.9022941561353,"lon":-58.6479010170021}},{"categoria":"Entidad","fuente":"INDEC","municipio":{"nombre":"Cañuelas","id":"060134"},"departamento":{"nombre":"Cañuelas","id":"06134"},"nombre":"MAXIMO PAZ","id":"06134050002","provincia":{"nombre":"Buenos Aires","id":"06"},"localidad_censal":{"nombre":"Máximo Paz","id":"06134050"},"centroide":{"lat":-34.9364563092157,"lon":-58.6143957995956}},{"categoria":"Localidad simple","fuente":"INDEC","municipio":{"nombre":"Cañuelas","id":"060134"},"departamento":{"nombre":"Cañuelas","id":"06134"},"nombre":"SANTA ROSA","id":"06134060000","provincia":{"nombre":"Buenos Aires","id":"06"},"localidad_censal":{"nombre":"Santa Rosa","id":"06134060"},"centroide":{"lat":-34.9611839371811,"lon":-58.7308918275978}},{"categoria":"Localidad simple","fuente":"INDEC","municipio":{"nombre":"Cañuelas","id":"060134"},"departamento":{"nombre":"Cañuelas","id":"06134"},"nombre":"URIBELARREA","id":"06134070000","provincia":{"nombre":"Buenos Aires","id":"06"},"localidad_censal":{"nombre":"Uribelarrea","id":"06134070"},"centroide":{"lat":-35.1227364407356,"lon":-58.8904871463421}},{"categoria":"Localidad simple","fuente":"INDEC","municipio":{"nombre":"Cañuelas","id":"060134"},"departamento":{"nombre":"Cañuelas","id":"06134"},"nombre":"VICENTE CASARES","id":"06134080000","provincia":{"nombre":"Buenos Aires","id":"06"},"localidad_censal":{"nombre":"Vicente Casares","id":"06134080"},"centroide":{"lat":-34.9653526702416,"lon":-58.6504979594296}},{"categoria":"Localidad simple","fuente":"INDEC","municipio":{"nombre":"Capitán Sarmiento","id":"060140"},"departamento":{"nombre":"Capitán Sarmiento","id":"06140"},"nombre":"CAPITAN SARMIENTO","id":"06140010000","provincia":{"nombre":"Buenos Aires","id":"06"},"localidad_censal":{"nombre":"Capitán Sarmiento","id":"06140010"},"centroide":{"lat":-34.1723674255219,"lon":-59.789349139091}},{"categoria":"Localidad simple","fuente":"INDEC","municipio":{"nombre":"Capitán Sarmiento","id":"060140"},"departamento":{"nombre":"Capitán Sarmiento","id":"06140"},"nombre":"LA LUISA","id":"06140020000","provincia":{"nombre":"Buenos Aires","id":"06"},"localidad_censal":{"nombre":"La Luisa","id":"06140020"},"centroide":{"lat":-34.1285572110784,"lon":-59.9240058312679}},{"categoria":"Localidad simple","fuente":"INDEC","municipio":{"nombre":"Carlos Casares","id":"060147"},"departamento":{"nombre":"Carlos Casares","id":"06147"},"nombre":"BELLOCQ","id":"06147010000","provincia":{"nombre":"Buenos Aires","id":"06"},"localidad_censal":{"nombre":"Bellocq","id":"06147010"},"centroide":{"lat":-35.9189705554631,"lon":-61.5312630222769}},{"categoria":"Localidad simple","fuente":"INDEC","municipio":{"nombre":"Carlos Casares","id":"060147"},"departamento":{"nombre":"Carlos Casares","id":"06147"},"nombre":"CADRET","id":"06147020000","provincia":{"nombre":"Buenos Aires","id":"06"},"localidad_censal":{"nombre":"Cadret","id":"06147020"},"centroide":{"lat":-35.7727531397053,"lon":-61.3353879836968}},{"categoria":"Localidad simple","fuente":"INDEC","municipio":{"nombre":"Carlos Casares","id":"060147"},"departamento":{"nombre":"Carlos Casares","id":"06147"},"nombre":"CARLOS CASARES","id":"06147030000","provincia":{"nombre":"Buenos Aires","id":"06"},"localidad_censal":{"nombre":"Carlos Casares","id":"06147030"},"centroide":{"lat":-35.623543502046,"lon":-61.3653159121918}},{"categoria":"Localidad simple","fuente":"INDEC","municipio":{"nombre":"Carlos Casares","id":"060147"},"departamento":{"nombre":"Carlos Casares","id":"06147"},"nombre":"COLONIA MAURICIO","id":"06147040000","provincia":{"nombre":"Buenos Aires","id":"06"},"localidad_censal":{"nombre":"Colonia Mauricio","id":"06147040"},"centroide":{"lat":-35.5249595511909,"lon":-61.4378670824782}},{"categoria":"Localidad simple","fuente":"INDEC","municipio":{"nombre":"Carlos Casares","id":"060147"},"departamento":{"nombre":"Carlos Casares","id":"06147"},"nombre":"HORTENSIA","id":"06147050000","provincia":{"nombre":"Buenos Aires","id":"06"},"localidad_censal":{"nombre":"Hortensia","id":"06147050"},"centroide":{"lat":-35.9277092575349,"lon":-61.262290153739}},{"categoria":"Localidad simple","fuente":"INDEC","municipio":{"nombre":"Carlos Casares","id":"060147"},"departamento":{"nombre":"Carlos Casares","id":"06147"},"nombre":"LA SOFIA","id":"06147060000","provincia":{"nombre":"Buenos Aires","id":"06"},"localidad_censal":{"nombre":"La Sofía","id":"06147060"},"centroide":{"lat":-35.7003907357414,"lon":-61.1702865161871}},{"categoria":"Localidad simple","fuente":"INDEC","municipio":{"nombre":"Carlos Casares","id":"060147"},"departamento":{"nombre":"Carlos Casares","id":"06147"},"nombre":"MAURICIO HIRSCH","id":"06147070000","provincia":{"nombre":"Buenos Aires","id":"06"},"localidad_censal":{"nombre":"Mauricio Hirsch","id":"06147070"},"centroide":{"lat":-35.583017649873,"lon":-61.5244457086778}},{"categoria":"Localidad simple","fuente":"INDEC","municipio":{"nombre":"Carlos Casares","id":"060147"},"departamento":{"nombre":"Carlos Casares","id":"06147"},"nombre":"MOCTEZUMA","id":"06147080000","provincia":{"nombre":"Buenos Aires","id":"06"},"localidad_censal":{"nombre":"Moctezuma","id":"06147080"},"centroide":{"lat":-35.4774725641963,"lon":-61.4930734927677}},{"categoria":"Localidad simple","fuente":"INDEC","municipio":{"nombre":"Carlos Casares","id":"060147"},"departamento":{"nombre":"Carlos Casares","id":"06147"},"nombre":"ORDOQUI","id":"06147090000","provincia":{"nombre":"Buenos Aires","id":"06"},"localidad_censal":{"nombre":"Ordoqui","id":"06147090"},"centroide":{"lat":-35.8831262095535,"lon":-61.1594280439031}},{"categoria":"Localidad simple","fuente":"INDEC","municipio":{"nombre":"Carlos Casares","id":"060147"},"departamento":{"nombre":"Carlos Casares","id":"06147"},"nombre":"SANTO TOMAS","id":"06147095000","provincia":{"nombre":"Buenos Aires","id":"06"},"localidad_censal":{"nombre":"Santo Tomás","id":"06147095"},"centroide":{"lat":-35.6740915009624,"lon":-61.5066664301675}},{"categoria":"Localidad simple","fuente":"INDEC","municipio":{"nombre":"Carlos Casares","id":"060147"},"departamento":{"nombre":"Carlos Casares","id":"06147"},"nombre":"SMITH","id":"06147100000","provincia":{"nombre":"Buenos Aires","id":"06"},"localidad_censal":{"nombre":"Smith","id":"06147100"},"centroide":{"lat":-35.4946290260766,"lon":-61.5937811081594}},{"categoria":"Localidad simple","fuente":"INDEC","municipio":{"nombre":"Carlos Tejedor","id":"060154"},"departamento":{"nombre":"Carlos Tejedor","id":"06154"},"nombre":"CARLOS TEJEDOR","id":"06154010000","provincia":{"nombre":"Buenos Aires","id":"06"},"localidad_censal":{"nombre":"Carlos Tejedor","id":"06154010"},"centroide":{"lat":-35.3925733302196,"lon":-62.4193023144118}},{"categoria":"Localidad simple","fuente":"INDEC","municipio":{"nombre":"Carlos Tejedor","id":"060154"},"departamento":{"nombre":"Carlos Tejedor","id":"06154"},"nombre":"COLONIA SERE","id":"06154020000","provincia":{"nombre":"Buenos Aires","id":"06"},"localidad_censal":{"nombre":"Colonia Seré","id":"06154020"},"centroide":{"lat":-35.4388157700903,"lon":-62.7252382146864}},{"categoria":"Localidad simple","fuente":"INDEC","municipio":{"nombre":"Carlos Tejedor","id":"060154"},"departamento":{"nombre":"Carlos Tejedor","id":"06154"},"nombre":"CURARU","id":"06154030000","provincia":{"nombre":"Buenos Aires","id":"06"},"localidad_censal":{"nombre":"Curarú","id":"06154030"},"centroide":{"lat":-35.6403503028113,"lon":-62.1924372294866}},{"categoria":"Localidad simple","fuente":"INDEC","municipio":{"nombre":"Carlos Tejedor","id":"060154"},"departamento":{"nombre":"Carlos Tejedor","id":"06154"},"nombre":"TIMOTE","id":"06154040000","provincia":{"nombre":"Buenos Aires","id":"06"},"localidad_censal":{"nombre":"Timote","id":"06154040"},"centroide":{"lat":-35.3477615165229,"lon":-62.2246532791856}},{"categoria":"Localidad simple","fuente":"INDEC","municipio":{"nombre":"Carlos Tejedor","id":"060154"},"departamento":{"nombre":"Carlos Tejedor","id":"06154"},"nombre":"TRES ALGARROBOS","id":"06154050000","provincia":{"nombre":"Buenos Aires","id":"06"},"localidad_censal":{"nombre":"Tres Algarrobos","id":"06154050"},"centroide":{"lat":-35.1979815144911,"lon":-62.7730814064669}},{"categoria":"Localidad simple","fuente":"INDEC","municipio":{"nombre":"Carmen de Areco","id":"060161"},"departamento":{"nombre":"Carmen de Areco","id":"06161"},"nombre":"CARMEN DE ARECO","id":"06161010000","provincia":{"nombre":"Buenos Aires","id":"06"},"localidad_censal":{"nombre":"Carmen de Areco","id":"06161010"},"centroide":{"lat":-34.3776987251735,"lon":-59.8229019801033}},{"categoria":"Localidad simple","fuente":"INDEC","municipio":{"nombre":"Carmen de Areco","id":"060161"},"departamento":{"nombre":"Carmen de Areco","id":"06161"},"nombre":"PUEBLO GOUIN","id":"06161020000","provincia":{"nombre":"Buenos Aires","id":"06"},"localidad_censal":{"nombre":"Pueblo Gouin","id":"06161020"},"centroide":{"lat":-34.4951191416005,"lon":-59.8029737383366}},{"categoria":"Localidad simple","fuente":"INDEC","municipio":{"nombre":"Carmen de Areco","id":"060161"},"departamento":{"nombre":"Carmen de Areco","id":"06161"},"nombre":"TRES SARGENTOS","id":"06161030000","provincia":{"nombre":"Buenos Aires","id":"06"},"localidad_censal":{"nombre":"Tres Sargentos","id":"06161030"},"centroide":{"lat":-34.4664778301466,"lon":-60.0008697422009}},{"categoria":"Localidad simple","fuente":"INDEC","municipio":{"nombre":"Castelli","id":"060168"},"departamento":{"nombre":"Castelli","id":"06168"},"nombre":"CASTELLI","id":"06168010000","provincia":{"nombre":"Buenos Aires","id":"06"},"localidad_censal":{"nombre":"Castelli","id":"06168010"},"centroide":{"lat":-36.091694119436,"lon":-57.8071801619355}},{"categoria":"Localidad simple","fuente":"INDEC","municipio":{"nombre":"Castelli","id":"060168"},"departamento":{"nombre":"Castelli","id":"06168"},"nombre":"CENTRO GUERRERO","id":"06168020000","provincia":{"nombre":"Buenos Aires","id":"06"},"localidad_censal":{"nombre":"Centro Guerrero","id":"06168020"},"centroide":{"lat":-36.0570621940227,"lon":-57.8235422591576}},{"categoria":"Localidad simple","fuente":"INDEC","municipio":{"nombre":"Castelli","id":"060168"},"departamento":{"nombre":"Castelli","id":"06168"},"nombre":"CERRO DE LA GLORIA (CANAL 15)","id":"06168030000","provincia":{"nombre":"Buenos Aires","id":"06"},"localidad_censal":{"nombre":"Cerro de la Gloria","id":"06168030"},"centroide":{"lat":-35.9760530599951,"lon":-57.4487354447874}},{"categoria":"Localidad simple","fuente":"INDEC","municipio":{"nombre":"Colón","id":"060175"},"departamento":{"nombre":"Colón","id":"06175"},"nombre":"COLON","id":"06175010000","provincia":{"nombre":"Buenos Aires","id":"06"},"localidad_censal":{"nombre":"Colón","id":"06175010"},"centroide":{"lat":-33.8978633606345,"lon":-61.099560506382}},{"categoria":"Componente de localidad compuesta","fuente":"INDEC","municipio":{"nombre":"Colón","id":"060175"},"departamento":{"nombre":"Colón","id":"06175"},"nombre":"EL ARBOLITO","id":"06175020000","provincia":{"nombre":"Buenos Aires","id":"06"},"localidad_censal":{"nombre":"Villa Manuel Pomar","id":"06175020"},"centroide":{"lat":-33.9147838019682,"lon":-60.9438081845998}},{"categoria":"Localidad simple","fuente":"INDEC","municipio":{"nombre":"Colón","id":"060175"},"departamento":{"nombre":"Colón","id":"06175"},"nombre":"PEARSON","id":"06175030000","provincia":{"nombre":"Buenos Aires","id":"06"},"localidad_censal":{"nombre":"Pearson","id":"06175030"},"centroide":{"lat":-33.6518963027432,"lon":-60.8922239880462}},{"categoria":"Localidad simple","fuente":"INDEC","municipio":{"nombre":"Colón","id":"060175"},"departamento":{"nombre":"Colón","id":"06175"},"nombre":"SARASA","id":"06175040000","provincia":{"nombre":"Buenos Aires","id":"06"},"localidad_censal":{"nombre":"Sarasa","id":"06175040"},"centroide":{"lat":-34.0523353092344,"lon":-61.2019040914739}},{"categoria":"Localidad simple","fuente":"INDEC","municipio":{"nombre":"Coronel de Marina Leonardo Rosales","id":"060182"},"departamento":{"nombre":"Coronel de Marina Leonardo Rosales","id":"06182"},"nombre":"BAJO HONDO","id":"06182010000","provincia":{"nombre":"Buenos Aires","id":"06"},"localidad_censal":{"nombre":"Bajo Hondo","id":"06182010"},"centroide":{"lat":-38.7648159927502,"lon":-61.9184051093309}},{"categoria":"Localidad simple","fuente":"INDEC","municipio":{"nombre":"Coronel de Marina Leonardo Rosales","id":"060182"},"departamento":{"nombre":"Coronel de Marina Leonardo Rosales","id":"06182"},"nombre":"BALNEARIO PEHUEN CO","id":"06182020000","provincia":{"nombre":"Buenos Aires","id":"06"},"localidad_censal":{"nombre":"Balneario Pehuen Co","id":"06182020"},"centroide":{"lat":-38.9961963948629,"lon":-61.5471990087107}},{"categoria":"Localidad simple","fuente":"INDEC","municipio":{"nombre":"Coronel de Marina Leonardo Rosales","id":"060182"},"departamento":{"nombre":"Coronel de Marina Leonardo Rosales","id":"06182"},"nombre":"PAGO CHICO","id":"06182025000","provincia":{"nombre":"Buenos Aires","id":"06"},"localidad_censal":{"nombre":"Pago Chico","id":"06182025"},"centroide":{"lat":-38.7839402799391,"lon":-62.1195194756714}},{"categoria":"Localidad simple con entidad","fuente":"INDEC","municipio":{"nombre":"Coronel de Marina Leonardo Rosales","id":"060182"},"departamento":{"nombre":"Coronel de Marina Leonardo Rosales","id":"06182"},"nombre":"PUNTA ALTA","id":"06182030000","provincia":{"nombre":"Buenos Aires","id":"06"},"localidad_censal":{"nombre":"Punta Alta","id":"06182030"},"centroide":{"lat":-38.8813527346955,"lon":-62.0749536088688}},{"categoria":"Entidad","fuente":"INDEC","municipio":{"nombre":"Coronel de Marina Leonardo Rosales","id":"060182"},"departamento":{"nombre":"Coronel de Marina Leonardo Rosales","id":"06182"},"nombre":"PUNTA ALTA","id":"06182030001","provincia":{"nombre":"Buenos Aires","id":"06"},"localidad_censal":{"nombre":"Punta Alta","id":"06182030"},"centroide":{"lat":-38.8823547797498,"lon":-62.0626706347168}},{"categoria":"Entidad","fuente":"INDEC","municipio":{"nombre":"Coronel de Marina Leonardo Rosales","id":"060182"},"departamento":{"nombre":"Coronel de Marina Leonardo Rosales","id":"06182"},"nombre":"VILLA DEL MAR","id":"06182030002","provincia":{"nombre":"Buenos Aires","id":"06"},"localidad_censal":{"nombre":"Punta Alta","id":"06182030"},"centroide":{"lat":-38.8532242630709,"lon":-62.1164752039925}},{"categoria":"Localidad simple","fuente":"INDEC","municipio":{"nombre":"Coronel de Marina Leonardo Rosales","id":"060182"},"departamento":{"nombre":"Coronel de Marina Leonardo Rosales","id":"06182"},"nombre":"VILLA GENERAL ARIAS","id":"06182050000","provincia":{"nombre":"Buenos Aires","id":"06"},"localidad_censal":{"nombre":"Villa General Arias","id":"06182050"},"centroide":{"lat":-38.8069001411051,"lon":-62.09498539538}},{"categoria":"Localidad simple","fuente":"INDEC","municipio":{"nombre":"Coronel Dorrego","id":"060189"},"departamento":{"nombre":"Coronel Dorrego","id":"06189"},"nombre":"APARICIO","id":"06189010000","provincia":{"nombre":"Buenos Aires","id":"06"},"localidad_censal":{"nombre":"Aparicio","id":"06189010"},"centroide":{"lat":-38.6204949120776,"lon":-60.8809603426407}},{"categoria":"Localidad simple","fuente":"INDEC","municipio":{"nombre":"Coronel Dorrego","id":"060189"},"departamento":{"nombre":"Coronel Dorrego","id":"06189"},"nombre":"BALNEARIO MARISOL","id":"06189020000","provincia":{"nombre":"Buenos Aires","id":"06"},"localidad_censal":{"nombre":"Marisol","id":"06189020"},"centroide":{"lat":-38.9224906889726,"lon":-60.5329774471942}},{"categoria":"Localidad simple","fuente":"INDEC","municipio":{"nombre":"Coronel Dorrego","id":"060189"},"departamento":{"nombre":"Coronel Dorrego","id":"06189"},"nombre":"CORONEL DORREGO","id":"06189030000","provincia":{"nombre":"Buenos Aires","id":"06"},"localidad_censal":{"nombre":"Coronel Dorrego","id":"06189030"},"centroide":{"lat":-38.7166239148323,"lon":-61.2884948879698}},{"categoria":"Localidad simple","fuente":"INDEC","municipio":{"nombre":"Coronel Dorrego","id":"060189"},"departamento":{"nombre":"Coronel Dorrego","id":"06189"},"nombre":"EL PERDIDO","id":"06189040000","provincia":{"nombre":"Buenos Aires","id":"06"},"localidad_censal":{"nombre":"El Perdido","id":"06189040"},"centroide":{"lat":-38.6757752787604,"lon":-61.0884421797928}},{"categoria":"Localidad simple","fuente":"INDEC","municipio":{"nombre":"Coronel Dorrego","id":"060189"},"departamento":{"nombre":"Coronel Dorrego","id":"06189"},"nombre":"FARO","id":"06189050000","provincia":{"nombre":"Buenos Aires","id":"06"},"localidad_censal":{"nombre":"Faro","id":"06189050"},"centroide":{"lat":-38.7966781095909,"lon":-61.0688772134763}},{"categoria":"Localidad simple","fuente":"INDEC","municipio":{"nombre":"Coronel Dorrego","id":"060189"},"departamento":{"nombre":"Coronel Dorrego","id":"06189"},"nombre":"IRENE","id":"06189060000","provincia":{"nombre":"Buenos Aires","id":"06"},"localidad_censal":{"nombre":"Irene","id":"06189060"},"centroide":{"lat":-38.5543426342658,"lon":-60.6954938748393}},{"categoria":"Localidad simple","fuente":"INDEC","municipio":{"nombre":"Coronel Dorrego","id":"060189"},"departamento":{"nombre":"Coronel Dorrego","id":"06189"},"nombre":"ORIENTE","id":"06189070000","provincia":{"nombre":"Buenos Aires","id":"06"},"localidad_censal":{"nombre":"Oriente","id":"06189070"},"centroide":{"lat":-38.7388491145692,"lon":-60.6092238150829}},{"categoria":"Localidad simple","fuente":"INDEC","municipio":{"nombre":"Coronel Dorrego","id":"060189"},"departamento":{"nombre":"Coronel Dorrego","id":"06189"},"nombre":"LA RUTA","id":"06189075000","provincia":{"nombre":"Buenos Aires","id":"06"},"localidad_censal":{"nombre":"Paraje La Ruta","id":"06189075"},"centroide":{"lat":-38.6534164106777,"lon":-60.8608557685895}},{"categoria":"Localidad simple","fuente":"INDEC","municipio":{"nombre":"Coronel Dorrego","id":"060189"},"departamento":{"nombre":"Coronel Dorrego","id":"06189"},"nombre":"SAN ROMAN","id":"06189080000","provincia":{"nombre":"Buenos Aires","id":"06"},"localidad_censal":{"nombre":"San Román","id":"06189080"},"centroide":{"lat":-38.7415550885108,"lon":-61.5377200112301}},{"categoria":"Localidad simple","fuente":"INDEC","municipio":{"nombre":"Coronel Pringles","id":"060196"},"departamento":{"nombre":"Coronel Pringles","id":"06196"},"nombre":"CORONEL PRINGLES","id":"06196010000","provincia":{"nombre":"Buenos Aires","id":"06"},"localidad_censal":{"nombre":"Coronel Pringles","id":"06196010"},"centroide":{"lat":-37.9865210556901,"lon":-61.3540715661069}},{"categoria":"Localidad simple","fuente":"INDEC","municipio":{"nombre":"Coronel Pringles","id":"060196"},"departamento":{"nombre":"Coronel Pringles","id":"06196"},"nombre":"EL DIVISORIO","id":"06196020000","provincia":{"nombre":"Buenos Aires","id":"06"},"localidad_censal":{"nombre":"El Divisorio","id":"06196020"},"centroide":{"lat":-38.3235636030787,"lon":-61.4450578127822}},{"categoria":"Localidad simple","fuente":"INDEC","municipio":{"nombre":"Coronel Pringles","id":"060196"},"departamento":{"nombre":"Coronel Pringles","id":"06196"},"nombre":"EL PENSAMIENTO","id":"06196030000","provincia":{"nombre":"Buenos Aires","id":"06"},"localidad_censal":{"nombre":"El Pensamiento","id":"06196030"},"centroide":{"lat":-38.2154094275446,"lon":-61.3145847771451}},{"categoria":"Localidad simple","fuente":"INDEC","municipio":{"nombre":"Coronel Pringles","id":"060196"},"departamento":{"nombre":"Coronel Pringles","id":"06196"},"nombre":"INDIO RICO","id":"06196040000","provincia":{"nombre":"Buenos Aires","id":"06"},"localidad_censal":{"nombre":"Indio Rico","id":"06196040"},"centroide":{"lat":-38.3293770967784,"lon":-60.8866340266383}},{"categoria":"Localidad simple","fuente":"INDEC","municipio":{"nombre":"Coronel Pringles","id":"060196"},"departamento":{"nombre":"Coronel Pringles","id":"06196"},"nombre":"LARTIGAU","id":"06196050000","provincia":{"nombre":"Buenos Aires","id":"06"},"localidad_censal":{"nombre":"Lartigau","id":"06196050"},"centroide":{"lat":-38.44591903663,"lon":-61.566096860456}},{"categoria":"Localidad simple","fuente":"INDEC","municipio":{"nombre":"Coronel Suárez","id":"060203"},"departamento":{"nombre":"Coronel Suárez","id":"06203"},"nombre":"CASCADAS","id":"06203010000","provincia":{"nombre":"Buenos Aires","id":"06"},"localidad_censal":{"nombre":"Cascada","id":"06203010"},"centroide":{"lat":-37.2899615825436,"lon":-62.2971682457111}},{"categoria":"Localidad simple","fuente":"INDEC","municipio":{"nombre":"Coronel Suárez","id":"060203"},"departamento":{"nombre":"Coronel Suárez","id":"06203"},"nombre":"CORONEL SUAREZ","id":"06203020000","provincia":{"nombre":"Buenos Aires","id":"06"},"localidad_censal":{"nombre":"Coronel Suárez","id":"06203020"},"centroide":{"lat":-37.4596224938744,"lon":-61.9317530113989}},{"categoria":"Localidad simple","fuente":"INDEC","municipio":{"nombre":"Coronel Suárez","id":"060203"},"departamento":{"nombre":"Coronel Suárez","id":"06203"},"nombre":"CURA MALAL","id":"06203030000","provincia":{"nombre":"Buenos Aires","id":"06"},"localidad_censal":{"nombre":"Curamalal","id":"06203030"},"centroide":{"lat":-37.4843018699441,"lon":-62.10361959864}},{"categoria":"Localidad simple","fuente":"INDEC","municipio":{"nombre":"Coronel Suárez","id":"060203"},"departamento":{"nombre":"Coronel Suárez","id":"06203"},"nombre":"D'ORBIGNY","id":"06203040000","provincia":{"nombre":"Buenos Aires","id":"06"},"localidad_censal":{"nombre":"D'Orbigny","id":"06203040"},"centroide":{"lat":-37.6772293087783,"lon":-61.7052608546557}},{"categoria":"Localidad simple","fuente":"INDEC","municipio":{"nombre":"Coronel Suárez","id":"060203"},"departamento":{"nombre":"Coronel Suárez","id":"06203"},"nombre":"HUANGUELEN","id":"06203050000","provincia":{"nombre":"Buenos Aires","id":"06"},"localidad_censal":{"nombre":"Huanguelén","id":"06203050"},"centroide":{"lat":-37.0622288209544,"lon":-61.9297529087938}},{"categoria":"Localidad simple","fuente":"INDEC","municipio":{"nombre":"Coronel Suárez","id":"060203"},"departamento":{"nombre":"Coronel Suárez","id":"06203"},"nombre":"PASMAN","id":"06203060000","provincia":{"nombre":"Buenos Aires","id":"06"},"localidad_censal":{"nombre":"Pasman","id":"06203060"},"centroide":{"lat":-37.2234351404125,"lon":-62.1602259170472}},{"categoria":"Localidad simple","fuente":"INDEC","municipio":{"nombre":"Coronel Suárez","id":"060203"},"departamento":{"nombre":"Coronel Suárez","id":"06203"},"nombre":"SAN JOSE","id":"06203070000","provincia":{"nombre":"Buenos Aires","id":"06"},"localidad_censal":{"nombre":"San José","id":"06203070"},"centroide":{"lat":-37.5077480260109,"lon":-61.9211473085303}},{"categoria":"Localidad simple","fuente":"INDEC","municipio":{"nombre":"Coronel Suárez","id":"060203"},"departamento":{"nombre":"Coronel Suárez","id":"06203"},"nombre":"SANTA MARIA","id":"06203080000","provincia":{"nombre":"Buenos Aires","id":"06"},"localidad_censal":{"nombre":"Santa María","id":"06203080"},"centroide":{"lat":-37.5565856774998,"lon":-61.872634363442}},{"categoria":"Localidad simple","fuente":"INDEC","municipio":{"nombre":"Coronel Suárez","id":"060203"},"departamento":{"nombre":"Coronel Suárez","id":"06203"},"nombre":"SANTA TRINIDAD","id":"06203090000","provincia":{"nombre":"Buenos Aires","id":"06"},"localidad_censal":{"nombre":"Santa Trinidad","id":"06203090"},"centroide":{"lat":-37.4891036510029,"lon":-61.9252761219778}},{"categoria":"Componente de localidad compuesta","fuente":"INDEC","municipio":{"nombre":"Coronel Suárez","id":"060203"},"departamento":{"nombre":"Coronel Suárez","id":"06203"},"nombre":"VILLA LA ARCADIA","id":"06203100000","provincia":{"nombre":"Buenos Aires","id":"06"},"localidad_censal":{"nombre":"Villa La Arcadia","id":"06203100"},"centroide":{"lat":-38.1345025284944,"lon":-61.7885553500206}},{"categoria":"Localidad simple","fuente":"INDEC","municipio":{"nombre":"Chacabuco","id":"060210"},"departamento":{"nombre":"Chacabuco","id":"06210"},"nombre":"CASTILLA","id":"06210010000","provincia":{"nombre":"Buenos Aires","id":"06"},"localidad_censal":{"nombre":"Castilla","id":"06210010"},"centroide":{"lat":-34.6131247014799,"lon":-59.9005194580559}},{"categoria":"Localidad simple","fuente":"INDEC","municipio":{"nombre":"Chacabuco","id":"060210"},"departamento":{"nombre":"Chacabuco","id":"06210"},"nombre":"CHACABUCO","id":"06210020000","provincia":{"nombre":"Buenos Aires","id":"06"},"localidad_censal":{"nombre":"Chacabuco","id":"06210020"},"centroide":{"lat":-34.6429843999409,"lon":-60.4701843504346}},{"categoria":"Localidad simple","fuente":"INDEC","municipio":{"nombre":"Chacabuco","id":"060210"},"departamento":{"nombre":"Chacabuco","id":"06210"},"nombre":"LOS ANGELES","id":"06210030000","provincia":{"nombre":"Buenos Aires","id":"06"},"localidad_censal":{"nombre":"Los Angeles","id":"06210030"},"centroide":{"lat":-34.4575064000002,"lon":-60.1801845132051}},{"categoria":"Localidad simple","fuente":"INDEC","municipio":{"nombre":"Chacabuco","id":"060210"},"departamento":{"nombre":"Chacabuco","id":"06210"},"nombre":"O'HIGGINS","id":"06210040000","provincia":{"nombre":"Buenos Aires","id":"06"},"localidad_censal":{"nombre":"O'Higgins","id":"06210040"},"centroide":{"lat":-34.5854707868254,"lon":-60.6986325840689}},{"categoria":"Localidad simple","fuente":"INDEC","municipio":{"nombre":"Chacabuco","id":"060210"},"departamento":{"nombre":"Chacabuco","id":"06210"},"nombre":"RAWSON","id":"06210050000","provincia":{"nombre":"Buenos Aires","id":"06"},"localidad_censal":{"nombre":"Rawson","id":"06210050"},"centroide":{"lat":-34.6086374337309,"lon":-60.0677106761007}},{"categoria":"Localidad simple","fuente":"INDEC","municipio":{"nombre":"Chascomús","id":"060218"},"departamento":{"nombre":"Chascomús","id":"06217"},"nombre":"BARRIO LOMAS ALTAS","id":"06217003000","provincia":{"nombre":"Buenos Aires","id":"06"},"localidad_censal":{"nombre":"Barrio Lomas Altas","id":"06217003"},"centroide":{"lat":-35.5739889229165,"lon":-58.0680436475186}},{"categoria":"Entidad","fuente":"INDEC","municipio":{"nombre":"Chascomús","id":"060218"},"departamento":{"nombre":"Chascomús","id":"06217"},"nombre":"CHASCOMUS","id":"06217010001","provincia":{"nombre":"Buenos Aires","id":"06"},"localidad_censal":{"nombre":"Chascomús","id":"06217010"},"centroide":{"lat":-35.5743009068199,"lon":-58.0005532563664}},{"categoria":"Entidad","fuente":"INDEC","municipio":{"nombre":"Chascomús","id":"060218"},"departamento":{"nombre":"Chascomús","id":"06217"},"nombre":"BARRIO SAN CAYETANO","id":"06217010003","provincia":{"nombre":"Buenos Aires","id":"06"},"localidad_censal":{"nombre":"Chascomús","id":"06217010"},"centroide":{"lat":-35.5466815668936,"lon":-58.0013258753826}},{"categoria":"Localidad simple","fuente":"INDEC","municipio":{"nombre":"Chascomús","id":"060218"},"departamento":{"nombre":"Chascomús","id":"06217"},"nombre":"LAGUNA VITEL","id":"06217015000","provincia":{"nombre":"Buenos Aires","id":"06"},"localidad_censal":{"nombre":"Laguna Vitel","id":"06217015"},"centroide":{"lat":-35.5404169288645,"lon":-58.1349194201315}},{"categoria":"Localidad simple","fuente":"INDEC","municipio":{"nombre":"Lezama","id":"060466"},"departamento":{"nombre":"Chascomús","id":"06217"},"nombre":"MANUEL J. COBO","id":"06217020000","provincia":{"nombre":"Buenos Aires","id":"06"},"localidad_censal":{"nombre":"Manuel J. Cobo","id":"06217020"},"centroide":{"lat":-35.8748248734085,"lon":-57.8964226760932}},{"categoria":"Localidad simple","fuente":"INDEC","municipio":{"nombre":"Chascomús","id":"060218"},"departamento":{"nombre":"Chascomús","id":"06217"},"nombre":"VILLA PARQUE GIRADO","id":"06217030000","provincia":{"nombre":"Buenos Aires","id":"06"},"localidad_censal":{"nombre":"Villa Parque Girado","id":"06217030"},"centroide":{"lat":-35.6282696386352,"lon":-58.0145524400059}},{"categoria":"Componente de localidad compuesta","fuente":"INDEC","municipio":{"nombre":"Chivilcoy","id":"060224"},"departamento":{"nombre":"Chivilcoy","id":"06224"},"nombre":"BENITEZ","id":"06224005000","provincia":{"nombre":"Buenos Aires","id":"06"},"localidad_censal":{"nombre":"Benitez","id":"06224005"},"centroide":{"lat":-34.9660329017519,"lon":-60.1236385563996}},{"categoria":"Localidad simple","fuente":"INDEC","municipio":{"nombre":"Chivilcoy","id":"060224"},"departamento":{"nombre":"Chivilcoy","id":"06224"},"nombre":"CHIVILCOY","id":"06224010000","provincia":{"nombre":"Buenos Aires","id":"06"},"localidad_censal":{"nombre":"Chivilcoy","id":"06224010"},"centroide":{"lat":-34.8980163772726,"lon":-60.0188841030321}},{"categoria":"Localidad simple","fuente":"INDEC","municipio":{"nombre":"Chivilcoy","id":"060224"},"departamento":{"nombre":"Chivilcoy","id":"06224"},"nombre":"EMILIO AYARZA","id":"06224020000","provincia":{"nombre":"Buenos Aires","id":"06"},"localidad_censal":{"nombre":"Emilio Ayarza","id":"06224020"},"centroide":{"lat":-34.746060108407,"lon":-60.0392314192743}},{"categoria":"Localidad simple","fuente":"INDEC","municipio":{"nombre":"Chivilcoy","id":"060224"},"departamento":{"nombre":"Chivilcoy","id":"06224"},"nombre":"GOROSTIAGA","id":"06224030000","provincia":{"nombre":"Buenos Aires","id":"06"},"localidad_censal":{"nombre":"Gorostiaga","id":"06224030"},"centroide":{"lat":-34.839127302807,"lon":-59.8646671984292}},{"categoria":"Localidad simple","fuente":"INDEC","municipio":{"nombre":"Chivilcoy","id":"060224"},"departamento":{"nombre":"Chivilcoy","id":"06224"},"nombre":"LA RICA","id":"06224040000","provincia":{"nombre":"Buenos Aires","id":"06"},"localidad_censal":{"nombre":"La Rica","id":"06224040"},"centroide":{"lat":-34.9739189538858,"lon":-59.8639302070489}},{"categoria":"Localidad simple","fuente":"INDEC","municipio":{"nombre":"Chivilcoy","id":"060224"},"departamento":{"nombre":"Chivilcoy","id":"06224"},"nombre":"MOQUEHUA","id":"06224050000","provincia":{"nombre":"Buenos Aires","id":"06"},"localidad_censal":{"nombre":"Moquehuá","id":"06224050"},"centroide":{"lat":-35.0926582854313,"lon":-59.7745302971612}},{"categoria":"Localidad simple","fuente":"INDEC","municipio":{"nombre":"Chivilcoy","id":"060224"},"departamento":{"nombre":"Chivilcoy","id":"06224"},"nombre":"RAMON BIAUS","id":"06224060000","provincia":{"nombre":"Buenos Aires","id":"06"},"localidad_censal":{"nombre":"Ramón Biaus","id":"06224060"},"centroide":{"lat":-35.0858455213162,"lon":-59.9236682591744}},{"categoria":"Localidad simple","fuente":"INDEC","municipio":{"nombre":"Chivilcoy","id":"060224"},"departamento":{"nombre":"Chivilcoy","id":"06224"},"nombre":"SAN SEBASTIAN","id":"06224070000","provincia":{"nombre":"Buenos Aires","id":"06"},"localidad_censal":{"nombre":"San Sebastián","id":"06224070"},"centroide":{"lat":-34.9443783815263,"lon":-59.7018597369347}},{"categoria":"Localidad simple","fuente":"INDEC","municipio":{"nombre":"Daireaux","id":"060231"},"departamento":{"nombre":"Daireaux","id":"06231"},"nombre":"ANDANT","id":"06231010000","provincia":{"nombre":"Buenos Aires","id":"06"},"localidad_censal":{"nombre":"Andant","id":"06231010"},"centroide":{"lat":-36.5640579804658,"lon":-62.1324009778233}},{"categoria":"Localidad simple","fuente":"INDEC","municipio":{"nombre":"Daireaux","id":"060231"},"departamento":{"nombre":"Daireaux","id":"06231"},"nombre":"ARBOLEDAS","id":"06231020000","provincia":{"nombre":"Buenos Aires","id":"06"},"localidad_censal":{"nombre":"Arboledas","id":"06231020"},"centroide":{"lat":-36.8827708539235,"lon":-61.4878179060517}},{"categoria":"Localidad simple","fuente":"INDEC","municipio":{"nombre":"Daireaux","id":"060231"},"departamento":{"nombre":"Daireaux","id":"06231"},"nombre":"DAIREAUX","id":"06231030000","provincia":{"nombre":"Buenos Aires","id":"06"},"localidad_censal":{"nombre":"Daireaux","id":"06231030"},"centroide":{"lat":-36.6001749213746,"lon":-61.7450132654369}},{"categoria":"Localidad simple","fuente":"INDEC","municipio":{"nombre":"Daireaux","id":"060231"},"departamento":{"nombre":"Daireaux","id":"06231"},"nombre":"LA LARGA","id":"06231040000","provincia":{"nombre":"Buenos Aires","id":"06"},"localidad_censal":{"nombre":"La Larga","id":"06231040"},"centroide":{"lat":-36.6749256386405,"lon":-61.9291952273289}},{"categoria":"Localidad simple","fuente":"INDEC","municipio":{"nombre":"Daireaux","id":"060231"},"departamento":{"nombre":"Daireaux","id":"06231"},"nombre":"SALAZAR","id":"06231060000","provincia":{"nombre":"Buenos Aires","id":"06"},"localidad_censal":{"nombre":"Salazar","id":"06231060"},"centroide":{"lat":-36.307117163487,"lon":-62.2003365899}},{"categoria":"Localidad simple","fuente":"INDEC","municipio":{"nombre":"Dolores","id":"060238"},"departamento":{"nombre":"Dolores","id":"06238"},"nombre":"DOLORES","id":"06238010000","provincia":{"nombre":"Buenos Aires","id":"06"},"localidad_censal":{"nombre":"Dolores","id":"06238010"},"centroide":{"lat":-36.3161215739926,"lon":-57.6752657333964}},{"categoria":"Localidad simple","fuente":"INDEC","municipio":{"nombre":"Dolores","id":"060238"},"departamento":{"nombre":"Dolores","id":"06238"},"nombre":"SEVIGNE","id":"06238020000","provincia":{"nombre":"Buenos Aires","id":"06"},"localidad_censal":{"nombre":"Sevigne","id":"06238020"},"centroide":{"lat":-36.2067284269712,"lon":-57.7413707296745}},{"categoria":"Entidad","fuente":"INDEC","municipio":{"nombre":"Ensenada","id":"060245"},"departamento":{"nombre":"Ensenada","id":"06245"},"nombre":"DIQUE Nº 1","id":"06245010001","provincia":{"nombre":"Buenos Aires","id":"06"},"localidad_censal":{"nombre":"Ensenada","id":"06245010"},"centroide":{"lat":-34.8758485548313,"lon":-57.9336298993983}},{"categoria":"Entidad","fuente":"INDEC","municipio":{"nombre":"Ensenada","id":"060245"},"departamento":{"nombre":"Ensenada","id":"06245"},"nombre":"ENSENADA","id":"06245010002","provincia":{"nombre":"Buenos Aires","id":"06"},"localidad_censal":{"nombre":"Ensenada","id":"06245010"},"centroide":{"lat":-34.8679770208454,"lon":-57.9214379246659}},{"categoria":"Entidad","fuente":"INDEC","municipio":{"nombre":"Ensenada","id":"060245"},"departamento":{"nombre":"Ensenada","id":"06245"},"nombre":"ISLA SANTIAGO (OESTE)","id":"06245010003","provincia":{"nombre":"Buenos Aires","id":"06"},"localidad_censal":{"nombre":"Ensenada","id":"06245010"},"centroide":{"lat":-34.8370461990756,"lon":-57.8999620408998}},{"categoria":"Entidad","fuente":"INDEC","municipio":{"nombre":"Ensenada","id":"060245"},"departamento":{"nombre":"Ensenada","id":"06245"},"nombre":"PUNTA LARA","id":"06245010004","provincia":{"nombre":"Buenos Aires","id":"06"},"localidad_censal":{"nombre":"Ensenada","id":"06245010"},"centroide":{"lat":-34.8346689394776,"lon":-58.0010481870988}},{"categoria":"Entidad","fuente":"INDEC","municipio":{"nombre":"Ensenada","id":"060245"},"departamento":{"nombre":"Ensenada","id":"06245"},"nombre":"VILLA CATELA","id":"06245010005","provincia":{"nombre":"Buenos Aires","id":"06"},"localidad_censal":{"nombre":"Ensenada","id":"06245010"},"centroide":{"lat":-34.884600148052,"lon":-57.9511290255284}},{"categoria":"Entidad","fuente":"INDEC","municipio":{"nombre":"Escobar","id":"060252"},"departamento":{"nombre":"Escobar","id":"06252"},"nombre":"BELEN DE ESCOBAR","id":"06252010001","provincia":{"nombre":"Buenos Aires","id":"06"},"localidad_censal":{"nombre":"Escobar","id":"06252010"},"centroide":{"lat":-34.3516704130246,"lon":-58.7832526742638}},{"categoria":"Entidad","fuente":"INDEC","municipio":{"nombre":"Escobar","id":"060252"},"departamento":{"nombre":"Escobar","id":"06252"},"nombre":"EL CAZADOR","id":"06252010002","provincia":{"nombre":"Buenos Aires","id":"06"},"localidad_censal":{"nombre":"Escobar","id":"06252010"},"centroide":{"lat":-34.3034904902207,"lon":-58.7811274560113}},{"categoria":"Entidad","fuente":"INDEC","municipio":{"nombre":"Escobar","id":"060252"},"departamento":{"nombre":"Escobar","id":"06252"},"nombre":"GARIN","id":"06252010003","provincia":{"nombre":"Buenos Aires","id":"06"},"localidad_censal":{"nombre":"Escobar","id":"06252010"},"centroide":{"lat":-34.428785229178,"lon":-58.7361732596546}},{"categoria":"Entidad","fuente":"INDEC","municipio":{"nombre":"Escobar","id":"060252"},"departamento":{"nombre":"Escobar","id":"06252"},"nombre":"INGENIERO MASCHWITZ","id":"06252010004","provincia":{"nombre":"Buenos Aires","id":"06"},"localidad_censal":{"nombre":"Escobar","id":"06252010"},"centroide":{"lat":-34.3790006332322,"lon":-58.7303342412363}},{"categoria":"Entidad","fuente":"INDEC","municipio":{"nombre":"Escobar","id":"060252"},"departamento":{"nombre":"Escobar","id":"06252"},"nombre":"LOMA VERDE","id":"06252010005","provincia":{"nombre":"Buenos Aires","id":"06"},"localidad_censal":{"nombre":"Escobar","id":"06252010"},"centroide":{"lat":-34.3285234890863,"lon":-58.8506997728362}},{"categoria":"Entidad","fuente":"INDEC","municipio":{"nombre":"Escobar","id":"060252"},"departamento":{"nombre":"Escobar","id":"06252"},"nombre":"MATHEU","id":"06252010006","provincia":{"nombre":"Buenos Aires","id":"06"},"localidad_censal":{"nombre":"Escobar","id":"06252010"},"centroide":{"lat":-34.3688779666182,"lon":-58.8402291878847}},{"categoria":"Entidad","fuente":"INDEC","municipio":{"nombre":"Escobar","id":"060252"},"departamento":{"nombre":"Escobar","id":"06252"},"nombre":"MAQUINISTA F. SAVIO ESTE","id":"06252010007","provincia":{"nombre":"Buenos Aires","id":"06"},"localidad_censal":{"nombre":"Escobar","id":"06252010"},"centroide":{"lat":-34.3964888336318,"lon":-58.7629458829717}},{"categoria":"Entidad","fuente":"INDEC","municipio":{"nombre":"Esteban Echeverría","id":"060260"},"departamento":{"nombre":"Esteban Echeverría","id":"06260"},"nombre":"CANNING","id":"06260010001","provincia":{"nombre":"Buenos Aires","id":"06"},"localidad_censal":{"nombre":"Esteban Echeverría","id":"06260010"},"centroide":{"lat":-34.8849791351051,"lon":-58.4778099372334}},{"categoria":"Entidad","fuente":"INDEC","municipio":{"nombre":"Esteban Echeverría","id":"060260"},"departamento":{"nombre":"Esteban Echeverría","id":"06260"},"nombre":"EL JAGÜEL","id":"06260010002","provincia":{"nombre":"Buenos Aires","id":"06"},"localidad_censal":{"nombre":"Esteban Echeverría","id":"06260010"},"centroide":{"lat":-34.8304505041023,"lon":-58.494869419897}},{"categoria":"Entidad","fuente":"INDEC","municipio":{"nombre":"Esteban Echeverría","id":"060260"},"departamento":{"nombre":"Esteban Echeverría","id":"06260"},"nombre":"LUIS GUILLON","id":"06260010003","provincia":{"nombre":"Buenos Aires","id":"06"},"localidad_censal":{"nombre":"Esteban Echeverría","id":"06260010"},"centroide":{"lat":-34.800196435999,"lon":-58.4530964052639}},{"categoria":"Entidad","fuente":"INDEC","municipio":{"nombre":"Esteban Echeverría","id":"060260"},"departamento":{"nombre":"Esteban Echeverría","id":"06260"},"nombre":"MONTE GRANDE","id":"06260010004","provincia":{"nombre":"Buenos Aires","id":"06"},"localidad_censal":{"nombre":"Esteban Echeverría","id":"06260010"},"centroide":{"lat":-34.8191368630736,"lon":-58.4726947603508}},{"categoria":"Entidad","fuente":"INDEC","municipio":{"nombre":"Esteban Echeverría","id":"060260"},"departamento":{"nombre":"Esteban Echeverría","id":"06260"},"nombre":"9 DE ABRIL","id":"06260010005","provincia":{"nombre":"Buenos Aires","id":"06"},"localidad_censal":{"nombre":"Esteban Echeverría","id":"06260010"},"centroide":{"lat":-34.7565075768115,"lon":-58.4902923509723}},{"categoria":"Localidad simple","fuente":"INDEC","municipio":{"nombre":"Exaltación de la Cruz","id":"060266"},"departamento":{"nombre":"Exaltación de la Cruz","id":"06266"},"nombre":"ARROYO DE LA CRUZ","id":"06266010000","provincia":{"nombre":"Buenos Aires","id":"06"},"localidad_censal":{"nombre":"Arroyo de la Cruz","id":"06266010"},"centroide":{"lat":-34.3363786908945,"lon":-59.1094149717708}},{"categoria":"Localidad simple","fuente":"INDEC","municipio":{"nombre":"Exaltación de la Cruz","id":"060266"},"departamento":{"nombre":"Exaltación de la Cruz","id":"06266"},"nombre":"CAPILLA DEL SE¥OR","id":"06266020000","provincia":{"nombre":"Buenos Aires","id":"06"},"localidad_censal":{"nombre":"Capilla del Señor","id":"06266020"},"centroide":{"lat":-34.2912108668035,"lon":-59.1015232724441}},{"categoria":"Localidad simple","fuente":"INDEC","municipio":{"nombre":"Exaltación de la Cruz","id":"060266"},"departamento":{"nombre":"Exaltación de la Cruz","id":"06266"},"nombre":"DIEGO GAYNOR","id":"06266030000","provincia":{"nombre":"Buenos Aires","id":"06"},"localidad_censal":{"nombre":"Diego Gaynor","id":"06266030"},"centroide":{"lat":-34.288973975279,"lon":-59.222781222713}},{"categoria":"Componente de localidad compuesta","fuente":"INDEC","municipio":{"nombre":"Exaltación de la Cruz","id":"060266"},"departamento":{"nombre":"Exaltación de la Cruz","id":"06266"},"nombre":"LOS CARDALES","id":"06266040000","provincia":{"nombre":"Buenos Aires","id":"06"},"localidad_censal":{"nombre":"Los Cardales","id":"06266040"},"centroide":{"lat":-34.3300736993853,"lon":-58.9885651588167}},{"categoria":"Localidad simple","fuente":"INDEC","municipio":{"nombre":"Exaltación de la Cruz","id":"060266"},"departamento":{"nombre":"Exaltación de la Cruz","id":"06266"},"nombre":"PARADA ORLANDO","id":"06266050000","provincia":{"nombre":"Buenos Aires","id":"06"},"localidad_censal":{"nombre":"Parada Orlando","id":"06266050"},"centroide":{"lat":-34.3273003551547,"lon":-59.0759905460338}},{"categoria":"Entidad","fuente":"INDEC","municipio":{"nombre":"Exaltación de la Cruz","id":"060266"},"departamento":{"nombre":"Exaltación de la Cruz","id":"06266"},"nombre":"EL REMANSO","id":"06266060001","provincia":{"nombre":"Buenos Aires","id":"06"},"localidad_censal":{"nombre":"Parada Robles - Pavón","id":"06266060"},"centroide":{"lat":-34.4149477393736,"lon":-59.086281182388}},{"categoria":"Entidad","fuente":"INDEC","municipio":{"nombre":"Exaltación de la Cruz","id":"060266"},"departamento":{"nombre":"Exaltación de la Cruz","id":"06266"},"nombre":"PARADA ROBLES","id":"06266060002","provincia":{"nombre":"Buenos Aires","id":"06"},"localidad_censal":{"nombre":"Parada Robles - Pavón","id":"06266060"},"centroide":{"lat":-34.3736266959435,"lon":-59.139354021597}},{"categoria":"Entidad","fuente":"INDEC","municipio":{"nombre":"Exaltación de la Cruz","id":"060266"},"departamento":{"nombre":"Exaltación de la Cruz","id":"06266"},"nombre":"PAVON","id":"06266060003","provincia":{"nombre":"Buenos Aires","id":"06"},"localidad_censal":{"nombre":"Parada Robles - Pavón","id":"06266060"},"centroide":{"lat":-34.3581118951493,"lon":-59.0310010709452}},{"categoria":"Entidad","fuente":"INDEC","municipio":{"nombre":"Ezeiza","id":"060270"},"departamento":{"nombre":"José M. Ezeiza","id":"06270"},"nombre":"AEROPUERTO INTERNACIONAL EZEIZA","id":"06270010001","provincia":{"nombre":"Buenos Aires","id":"06"},"localidad_censal":{"nombre":"Ezeiza","id":"06270010"},"centroide":{"lat":-34.8128216283518,"lon":-58.5521650062885}},{"categoria":"Entidad","fuente":"INDEC","municipio":{"nombre":"Ezeiza","id":"060270"},"departamento":{"nombre":"José M. Ezeiza","id":"06270"},"nombre":"CANNING","id":"06270010002","provincia":{"nombre":"Buenos Aires","id":"06"},"localidad_censal":{"nombre":"Ezeiza","id":"06270010"},"centroide":{"lat":-34.8962283957338,"lon":-58.5087006002723}},{"categoria":"Entidad","fuente":"INDEC","municipio":{"nombre":"Ezeiza","id":"060270"},"departamento":{"nombre":"José M. Ezeiza","id":"06270"},"nombre":"CARLOS SPEGAZZINI","id":"06270010003","provincia":{"nombre":"Buenos Aires","id":"06"},"localidad_censal":{"nombre":"Ezeiza","id":"06270010"},"centroide":{"lat":-34.9338489869515,"lon":-58.5780017334776}},{"categoria":"Entidad","fuente":"INDEC","municipio":{"nombre":"Ezeiza","id":"060270"},"departamento":{"nombre":"José M. Ezeiza","id":"06270"},"nombre":"JOSE MARIA EZEIZA","id":"06270010004","provincia":{"nombre":"Buenos Aires","id":"06"},"localidad_censal":{"nombre":"Ezeiza","id":"06270010"},"centroide":{"lat":-34.8536100103068,"lon":-58.5195521653909}},{"categoria":"Entidad","fuente":"INDEC","municipio":{"nombre":"Ezeiza","id":"060270"},"departamento":{"nombre":"José M. Ezeiza","id":"06270"},"nombre":"LA UNION","id":"06270010005","provincia":{"nombre":"Buenos Aires","id":"06"},"localidad_censal":{"nombre":"Ezeiza","id":"06270010"},"centroide":{"lat":-34.8503859677023,"lon":-58.5558695462288}},{"categoria":"Entidad","fuente":"INDEC","municipio":{"nombre":"Ezeiza","id":"060270"},"departamento":{"nombre":"José M. Ezeiza","id":"06270"},"nombre":"TRISTAN SUAREZ","id":"06270010006","provincia":{"nombre":"Buenos Aires","id":"06"},"localidad_censal":{"nombre":"Ezeiza","id":"06270010"},"centroide":{"lat":-34.8851527149847,"lon":-58.5700335845498}},{"categoria":"Entidad","fuente":"INDEC","municipio":{"nombre":"Florencio Varela","id":"060274"},"departamento":{"nombre":"Florencio Varela","id":"06274"},"nombre":"BOSQUES","id":"06274010001","provincia":{"nombre":"Buenos Aires","id":"06"},"localidad_censal":{"nombre":"Florencio Varela","id":"06274010"},"centroide":{"lat":-34.827580702831,"lon":-58.2229120039487}},{"categoria":"Entidad","fuente":"INDEC","municipio":{"nombre":"Florencio Varela","id":"060274"},"departamento":{"nombre":"Florencio Varela","id":"06274"},"nombre":"ESTANISLAO SEVERO ZEBALLOS","id":"06274010002","provincia":{"nombre":"Buenos Aires","id":"06"},"localidad_censal":{"nombre":"Florencio Varela","id":"06274010"},"centroide":{"lat":-34.812285887223,"lon":-58.2426532633495}},{"categoria":"Entidad","fuente":"INDEC","municipio":{"nombre":"Florencio Varela","id":"060274"},"departamento":{"nombre":"Florencio Varela","id":"06274"},"nombre":"FLORENCIO VARELA","id":"06274010003","provincia":{"nombre":"Buenos Aires","id":"06"},"localidad_censal":{"nombre":"Florencio Varela","id":"06274010"},"centroide":{"lat":-34.7960544308506,"lon":-58.2748588953342}},{"categoria":"Entidad","fuente":"INDEC","municipio":{"nombre":"Florencio Varela","id":"060274"},"departamento":{"nombre":"Florencio Varela","id":"06274"},"nombre":"GOBERNADOR JULIO A. COSTA","id":"06274010004","provincia":{"nombre":"Buenos Aires","id":"06"},"localidad_censal":{"nombre":"Florencio Varela","id":"06274010"},"centroide":{"lat":-34.8152397261388,"lon":-58.3082334245906}},{"categoria":"Entidad","fuente":"INDEC","municipio":{"nombre":"Florencio Varela","id":"060274"},"departamento":{"nombre":"Florencio Varela","id":"06274"},"nombre":"INGENIERO JUAN ALLAN","id":"06274010005","provincia":{"nombre":"Buenos Aires","id":"06"},"localidad_censal":{"nombre":"Florencio Varela","id":"06274010"},"centroide":{"lat":-34.8648075260046,"lon":-58.2110437322304}},{"categoria":"Entidad","fuente":"INDEC","municipio":{"nombre":"Florencio Varela","id":"060274"},"departamento":{"nombre":"Florencio Varela","id":"06274"},"nombre":"VILLA BROWN","id":"06274010006","provincia":{"nombre":"Buenos Aires","id":"06"},"localidad_censal":{"nombre":"Florencio Varela","id":"06274010"},"centroide":{"lat":-34.8790424725562,"lon":-58.2898092496787}},{"categoria":"Entidad","fuente":"INDEC","municipio":{"nombre":"Florencio Varela","id":"060274"},"departamento":{"nombre":"Florencio Varela","id":"06274"},"nombre":"VILLA SAN LUIS","id":"06274010007","provincia":{"nombre":"Buenos Aires","id":"06"},"localidad_censal":{"nombre":"Florencio Varela","id":"06274010"},"centroide":{"lat":-34.8627929258513,"lon":-58.2553232274346}},{"categoria":"Entidad","fuente":"INDEC","municipio":{"nombre":"Florencio Varela","id":"060274"},"departamento":{"nombre":"Florencio Varela","id":"06274"},"nombre":"VILLA SANTA ROSA","id":"06274010008","provincia":{"nombre":"Buenos Aires","id":"06"},"localidad_censal":{"nombre":"Florencio Varela","id":"06274010"},"centroide":{"lat":-34.8380276482598,"lon":-58.2888899071764}},{"categoria":"Entidad","fuente":"INDEC","municipio":{"nombre":"Florencio Varela","id":"060274"},"departamento":{"nombre":"Florencio Varela","id":"06274"},"nombre":"VILLA VATTEONE","id":"06274010009","provincia":{"nombre":"Buenos Aires","id":"06"},"localidad_censal":{"nombre":"Florencio Varela","id":"06274010"},"centroide":{"lat":-34.8303193176345,"lon":-58.2635239901185}},{"categoria":"Entidad","fuente":"INDEC","municipio":{"nombre":"Florencio Varela","id":"060274"},"departamento":{"nombre":"Florencio Varela","id":"06274"},"nombre":"EL TROPEZON","id":"06274010010","provincia":{"nombre":"Buenos Aires","id":"06"},"localidad_censal":{"nombre":"Florencio Varela","id":"06274010"},"centroide":{"lat":-34.9564048574127,"lon":-58.2787454299742}},{"categoria":"Entidad","fuente":"INDEC","municipio":{"nombre":"Florencio Varela","id":"060274"},"departamento":{"nombre":"Florencio Varela","id":"06274"},"nombre":"LA CAPILLA","id":"06274010011","provincia":{"nombre":"Buenos Aires","id":"06"},"localidad_censal":{"nombre":"Florencio Varela","id":"06274010"},"centroide":{"lat":-34.9437330109546,"lon":-58.2632550914348}},{"categoria":"Localidad simple","fuente":"INDEC","municipio":{"nombre":"Florentino Ameghino","id":"060277"},"departamento":{"nombre":"Florentino Ameghino","id":"06277"},"nombre":"BLAQUIER","id":"06277010000","provincia":{"nombre":"Buenos Aires","id":"06"},"localidad_censal":{"nombre":"Blaquier","id":"06277010"},"centroide":{"lat":-34.6356616332748,"lon":-62.4786821321875}},{"categoria":"Localidad simple","fuente":"INDEC","municipio":{"nombre":"Florentino Ameghino","id":"060277"},"departamento":{"nombre":"Florentino Ameghino","id":"06277"},"nombre":"FLORENTINO AMEGHINO","id":"06277020000","provincia":{"nombre":"Buenos Aires","id":"06"},"localidad_censal":{"nombre":"Florentino Ameghino","id":"06277020"},"centroide":{"lat":-34.846677699169,"lon":-62.4671575805384}},{"categoria":"Localidad simple","fuente":"INDEC","municipio":{"nombre":"Florentino Ameghino","id":"060277"},"departamento":{"nombre":"Florentino Ameghino","id":"06277"},"nombre":"PORVENIR","id":"06277030000","provincia":{"nombre":"Buenos Aires","id":"06"},"localidad_censal":{"nombre":"Porvenir","id":"06277030"},"centroide":{"lat":-34.9522292183733,"lon":-62.2174229886622}},{"categoria":"Localidad simple","fuente":"INDEC","municipio":{"nombre":"General Alvarado","id":"060280"},"departamento":{"nombre":"General Alvarado","id":"06280"},"nombre":"CENTINELA DEL MAR","id":"06280005000","provincia":{"nombre":"Buenos Aires","id":"06"},"localidad_censal":{"nombre":"Centinela del Mar","id":"06280005"},"centroide":{"lat":-38.4348806367321,"lon":-58.216863731472}},{"categoria":"Localidad simple","fuente":"INDEC","municipio":{"nombre":"General Alvarado","id":"060280"},"departamento":{"nombre":"General Alvarado","id":"06280"},"nombre":"COMANDANTE NICANOR OTAMENDI","id":"06280010000","provincia":{"nombre":"Buenos Aires","id":"06"},"localidad_censal":{"nombre":"Comandante Nicanor Otamendi","id":"06280010"},"centroide":{"lat":-38.1119335118514,"lon":-57.8415353121543}},{"categoria":"Localidad simple","fuente":"INDEC","municipio":{"nombre":"General Alvarado","id":"060280"},"departamento":{"nombre":"General Alvarado","id":"06280"},"nombre":"MAR DEL SUR","id":"06280020000","provincia":{"nombre":"Buenos Aires","id":"06"},"localidad_censal":{"nombre":"Mar del Sur","id":"06280020"},"centroide":{"lat":-38.3446881533109,"lon":-57.9920393065731}},{"categoria":"Localidad simple","fuente":"INDEC","municipio":{"nombre":"General Alvarado","id":"060280"},"departamento":{"nombre":"General Alvarado","id":"06280"},"nombre":"MECHONGUE","id":"06280030000","provincia":{"nombre":"Buenos Aires","id":"06"},"localidad_censal":{"nombre":"Mechongué","id":"06280030"},"centroide":{"lat":-38.1486545138318,"lon":-58.2230121065801}},{"categoria":"Componente de localidad compuesta","fuente":"INDEC","municipio":{"nombre":"General Alvarado","id":"060280"},"departamento":{"nombre":"General Alvarado","id":"06280"},"nombre":"MIRAMAR","id":"06280040000","provincia":{"nombre":"Buenos Aires","id":"06"},"localidad_censal":{"nombre":"Miramar","id":"06280040"},"centroide":{"lat":-38.2707429318083,"lon":-57.8404714577536}},{"categoria":"Localidad simple","fuente":"INDEC","municipio":{"nombre":"General Alvear","id":"060287"},"departamento":{"nombre":"General Alvear","id":"06287"},"nombre":"GENERAL ALVEAR","id":"06287010000","provincia":{"nombre":"Buenos Aires","id":"06"},"localidad_censal":{"nombre":"General Alvear","id":"06287010"},"centroide":{"lat":-36.0229384341367,"lon":-60.0147935726886}},{"categoria":"Localidad simple","fuente":"INDEC","municipio":{"nombre":"General Arenales","id":"060294"},"departamento":{"nombre":"General Arenales","id":"06294"},"nombre":"ARRIBE¥OS","id":"06294010000","provincia":{"nombre":"Buenos Aires","id":"06"},"localidad_censal":{"nombre":"Arribeños","id":"06294010"},"centroide":{"lat":-34.2101542565966,"lon":-61.3548577979495}},{"categoria":"Localidad simple","fuente":"INDEC","municipio":{"nombre":"General Arenales","id":"060294"},"departamento":{"nombre":"General Arenales","id":"06294"},"nombre":"ASCENSION","id":"06294020000","provincia":{"nombre":"Buenos Aires","id":"06"},"localidad_censal":{"nombre":"Ascensión","id":"06294020"},"centroide":{"lat":-34.2368758979793,"lon":-61.103613881133}},{"categoria":"Localidad simple","fuente":"INDEC","municipio":{"nombre":"General Arenales","id":"060294"},"departamento":{"nombre":"General Arenales","id":"06294"},"nombre":"ESTACION ARENALES","id":"06294030000","provincia":{"nombre":"Buenos Aires","id":"06"},"localidad_censal":{"nombre":"Estación Arenales","id":"06294030"},"centroide":{"lat":-34.2698455922697,"lon":-61.2926718130401}},{"categoria":"Localidad simple","fuente":"INDEC","municipio":{"nombre":"General Arenales","id":"060294"},"departamento":{"nombre":"General Arenales","id":"06294"},"nombre":"FERRE","id":"06294040000","provincia":{"nombre":"Buenos Aires","id":"06"},"localidad_censal":{"nombre":"Ferré","id":"06294040"},"centroide":{"lat":-34.1250383813873,"lon":-61.132654886464}},{"categoria":"Localidad simple","fuente":"INDEC","municipio":{"nombre":"General Arenales","id":"060294"},"departamento":{"nombre":"General Arenales","id":"06294"},"nombre":"GENERAL ARENALES","id":"06294050000","provincia":{"nombre":"Buenos Aires","id":"06"},"localidad_censal":{"nombre":"General Arenales","id":"06294050"},"centroide":{"lat":-34.3044679711077,"lon":-61.3056277788216}},{"categoria":"Localidad simple","fuente":"INDEC","municipio":{"nombre":"General Arenales","id":"060294"},"departamento":{"nombre":"General Arenales","id":"06294"},"nombre":"LA ANGELITA","id":"06294060000","provincia":{"nombre":"Buenos Aires","id":"06"},"localidad_censal":{"nombre":"La Angelita","id":"06294060"},"centroide":{"lat":-34.2608740726731,"lon":-60.9685988224111}},{"categoria":"Localidad simple","fuente":"INDEC","municipio":{"nombre":"General Arenales","id":"060294"},"departamento":{"nombre":"General Arenales","id":"06294"},"nombre":"LA TRINIDAD","id":"06294070000","provincia":{"nombre":"Buenos Aires","id":"06"},"localidad_censal":{"nombre":"La Trinidad","id":"06294070"},"centroide":{"lat":-34.1068549430168,"lon":-61.1317020714357}},{"categoria":"Localidad simple","fuente":"INDEC","municipio":{"nombre":"General Belgrano","id":"060301"},"departamento":{"nombre":"General Belgrano","id":"06301"},"nombre":"GENERAL BELGRANO","id":"06301010000","provincia":{"nombre":"Buenos Aires","id":"06"},"localidad_censal":{"nombre":"General Belgrano","id":"06301010"},"centroide":{"lat":-35.7694577358026,"lon":-58.4944615102033}},